TimeUS,Log,CMDTimeUS,CMDLat,CMDLng,CMDAlt,AcceptRadius,AcceptRatio,AcceptAirspeed,AirspeedRatio,Lat,Lng,RelHomeAlt,Haversine,HaversineFt,dAlt,dAltFt,Dist,DistFt
567149920,Bix3 14,565270354.0,39.9123738,-76.759361,20.0,26.0,2.0,18.92895,1.373557434511687,39.9123564,-76.7592787,24.6445,7.283151056309058,23.89485331158101,4.644500000000001,15.237861380000002,8.638036209637916,28.34001471802846
576249780,Bix3 14,574670201.0,39.9126783,-76.7605412,30.0,26.0,2.0,15.96083,1.628987966164667,39.9126926,-76.7605249,30.59245,2.1127206629555015,6.9314984598509275,0.5924499999999995,1.9437336579999982,2.194216398211246,7.198872927907384
582796632,Bix3 14,580769770.0,39.9133736,-76.7602998,40.0,21.0,1.6153846153846154,14.24038,1.4746797487145709,39.9133775,-76.7603178,43.1171,1.5957134566670998,5.235280537171688,3.1171000000000006,10.226706364000002,3.501801514333511,11.488850480285956
599150166,Bix3 14,597969741.0,39.9130527,-76.758948,50.0,26.0,2.0,12.58574,2.065830058462991,39.9130701,-76.7589336,50.72259,2.292325054764524,7.520751732673641,0.7225899999999967,2.3707021755999893,2.403516270966596,7.885552322438047
606550112,Bix3 14,604470272.0,39.9126947,-76.7585564,50.0,15.0,1.1538461538461537,13.10662,1.1444598225934681,39.9126945,-76.7585626,50.11158,0.5294091875249521,1.736906838799364,0.11157999999999646,0.3660761271999884,0.5410399100212748,1.7750653783941992
614894567,Bix3 14,612769896.0,39.9121967,-76.7592645,50.0,24.0,1.8461538461538463,11.05349,2.171259936906805,39.9122113,-76.7592665,47.91137,1.6328441186549023,5.35710029824775,-2.088630000000002,-6.852460849200006,2.65114224302015,8.697973516590228
624249745,Bix3 14,623369815.0,39.9125754,-76.7606217,40.0,26.0,2.0,14.23752,1.8261607358584921,39.9125731,-76.760619,42.78448,0.3442432698446628,1.1294070894371635,2.784480000000002,9.135433363200006,2.8056785808843743,9.204982515308691
631649709,Bix3 14,630769831.0,39.9132913,-76.7610775,40.0,12.0,0.9230769230769231,13.97024,0.8589687793480999,39.9132871,-76.7610885,39.48994,1.048281014125747,3.439242282384316,-0.5100600000000028,-1.6734252504000093,1.1657848378566722,3.8247535274336846
641196836,Bix3 14,639070256.0,39.9133736,-76.7602998,40.0,21.0,1.6153846153846154,15.99437,1.3129619985032233,39.9133837,-76.7603016,38.60263,1.1338331344717432,3.719925100900274,-1.3973700000000022,-4.584547390800007,1.7995056248108878,5.9038900341045535
655894772,Bix3 14,654870268.0,39.9130527,-76.758948,50.0,26.0,2.0,12.84896,2.023510073967076,39.9130583,-76.7589422,49.83315,0.7954901559130475,2.6098759231257627,-0.1668499999999966,-0.5474081539999889,0.8127997974006659,2.6666660873040007
662196759,Bix3 14,660470289.0,39.9126947,-76.7585564,50.0,15.0,1.1538461538461537,12.35885,1.2137051586514926,39.9126943,-76.7585784,50.68267,1.8774168533404272,6.159504309113407,0.6826700000000017,2.2397310428000052,1.9976817489546912,6.554074189240509
670150320,Bix3 14,668070217.0,39.9121967,-76.7592645,50.0,24.0,1.8461538461538463,11.30666,2.1226427609921936,39.9122201,-76.7592683,51.28178,2.622809428182412,8.605018084357985,1.2817799999999977,4.2053150951999925,2.9192617671189653,9.577630776034587
678996745,Bix3 14,678169776.0,39.9125754,-76.7606217,40.0,26.0,2.0,15.75063,1.6507276216887834,39.9125751,-76.7606165,39.93762,0.4448823535297047,1.4595878207543962,-0.06237999999999744,-0.20465879919999158,0.4492344297603745,1.473866286535027
685349985,Bix3 14,684569775.0,39.9132913,-76.7610775,40.0,12.0,0.9230769230769231,13.71263,0.8751056507759635,39.9132909,-76.7610796,37.66031,0.1845976994613966,0.6056355163009284,-2.3396899999999974,-7.676148539599992,2.3469609299573837,7.700003297441382
695294721,Bix3 14,693270267.0,39.9133736,-76.7602998,40.0,21.0,1.6153846153846154,14.23183,1.4755656862118223,39.9133722,-76.7603047,41.52135,0.44609094736088384,1.463553023739482,1.5213499999999982,4.991305933999994,1.5854030893805289,5.201453871763214
709494221,Bix3 14,708470362.0,39.9130527,-76.758948,50.0,26.0,2.0,13.00162,1.9997508002848874,39.9130571,-76.7589512,49.72171,0.5603906945514764,1.8385522063122657,-0.27828999999999837,-0.9130249635999946,0.6256860671613882,2.052775876585769
715950074,Bix3 14,714270313.0,39.9126947,-76.7585564,50.0,15.0,1.1538461538461537,11.95348,1.2548646921231306,39.9126904,-76.7585864,50.63212,2.603698928674504,8.54231959315246,0.6321200000000005,2.0738845808000015,2.6793327164763916,8.790461949524405
723949874,Bix3 14,721870298.0,39.9121967,-76.7592645,50.0,24.0,1.8461538461538463,11.09834,2.162485560903703,39.9122303,-76.7592693,46.9705,3.7595740782437166,12.334561018865115,-3.0294999999999987,-9.939304779999995,4.828277902089117,15.840807272290059
733094159,Bix3 14,732270268.0,39.9125754,-76.7606217,40.0,26.0,2.0,14.86334,1.7492703524241522,39.9125836,-76.7606134,39.28569,1.1546654994045424,3.788272757066399,-0.7143099999999976,-2.343536820399992,1.357752257083426,4.454567915129587
739694307,Bix3 14,738769789.0,39.9132913,-76.7610775,40.0,12.0,0.9230769230769231,13.65297,0.8789296394850351,39.9132955,-76.7610618,41.29818,1.4185328308631788,4.653979252809152,1.298180000000002,4.259120871200007,1.9228901956785545,6.308695069590029
748397015,Bix3 14,746070219.0,39.9133736,-76.7602998,40.0,21.0,1.6153846153846154,15.2103,1.3806433798149937,39.9133822,-76.760299,39.95273,0.958978277719321,3.146254292672657,-0.04726999999999748,-0.15508530679999175,0.9601425883885762,3.1500742096887766
763894554,Bix3 14,762769821.0,39.9130527,-76.758948,50.0,26.0,2.0,12.85812,2.0220685450128015,39.9130398,-76.7589564,50.39367,1.603827306322834,5.261900779676207,0.3936700000000002,1.2915682828000006,1.6514351629436617,5.418094539992083
770996768,Bix3 14,769169713.0,39.9126947,-76.7585564,50.0,15.0,1.1538461538461537,13.99031,1.072170666697164,39.9126971,-76.7585846,47.81398,2.4205954605290194,7.941586410722028,-2.186019999999999,-7.171981856799997,3.261589462813138,10.700753173175855
779094225,Bix3 14,776870515.0,39.9121967,-76.7592645,50.0,24.0,1.8461538461538463,11.84016,2.026999635140066,39.9122295,-76.7592708,49.30434,3.687603535597511,12.098437183729738,-0.6956599999999966,-2.2823491543999888,3.7526474216679695,12.31183576690514
789049723,Bix3 14,788070186.0,39.9125754,-76.7606217,40.0,26.0,2.0,12.0501,2.1576584426685255,39.9125933,-76.760613,42.50383,2.1248028203981013,6.971138085274907,2.5038300000000007,8.214665617200001,3.2838927653733956,10.773926740347651
795694320,Bix3 14,794870321.0,39.9132913,-76.7610775,40.0,12.0,0.9230769230769231,14.77839,0.8119964353356489,39.9132952,-76.7610702,38.81447,0.7589619271840969,2.4900326491826728,-1.18553,-3.8895342451999997,1.407659258419806,4.618304801394037
805494287,Bix3 14,803270203.0,39.9133736,-76.7602998,40.0,21.0,1.6153846153846154,16.32118,1.2866716744745172,39.913381,-76.7602951,39.1255,0.9155476974831644,3.003765507810665,-0.8744999999999976,-2.869094579999992,1.266087610067613,4.153830874614227
822049767,Bix3 14,820969748.0,39.9130527,-76.758948,50.0,26.0,2.0,12.81772,2.0284418757782197,39.9130478,-76.7589505,49.40341,0.5852555195424917,1.9201297187357884,-0.5965899999999991,-1.957316335599997,0.8357294127018331,2.741894486368682
829249872,Bix3 14,827470284.0,39.9126947,-76.7585564,50.0,15.0,1.1538461538461537,13.23675,1.1332086803784915,39.9126893,-76.7585952,49.91605,3.3642006572729497,11.037404084407385,-0.08395000000000152,-0.275426518000005,3.365247935129854,11.04084003549143
837249902,Bix3 14,835070319.0,39.9121967,-76.7592645,50.0,24.0,1.8461538461538463,10.92086,2.1976291244462436,39.9122485,-76.759276,50.21585,5.844462189037168,19.174745328280704,0.2158500000000032,0.7081693140000105,5.848446759746141,19.187818067245527
846950093,Bix3 14,846070283.0,39.9125754,-76.7606217,40.0,26.0,2.0,12.75948,2.037700595949051,39.9125931,-76.7606155,40.98302,2.03852507702787,6.6880746137161164,0.9830200000000033,3.2251313368000107,2.2631643356308637,7.425080078911163
853694272,Bix3 14,852870368.0,39.9132913,-76.7610775,40.0,12.0,0.9230769230769231,13.81408,0.8686789131089439,39.9132952,-76.7610561,41.20671,1.8765116435778828,6.156534460716061,1.206710000000001,3.9590224364000033,2.231018819414881,7.319615783489118
862649699,Bix3 14,860470244.0,39.9133736,-76.7602998,40.0,21.0,1.6153846153846154,15.74836,1.3334721837702466,39.9133849,-76.7602983,39.45361,1.2633555053843848,4.144867276285305,-0.5463900000000024,-1.7926181676000077,1.3764480248396729,4.515905737814992
877894389,Bix3 14,876769894.0,39.9130527,-76.758948,50.0,26.0,2.0,14.00745,1.856155117455354,39.9130479,-76.7589531,49.06885,0.6887251179511881,2.259596915978976,-0.9311500000000024,-3.054954166000008,1.158180733131441,3.799805676486957
884750594,Bix3 14,882969745.0,39.9126947,-76.7585564,50.0,15.0,1.1538461538461537,13.22769,1.1339848454265256,39.912697,-76.7585908,49.26505,2.945901481576395,9.665031416815099,-0.7349499999999978,-2.4112533579999926,3.036196146768847,9.961273766165105
892596729,Bix3 14,890470313.0,39.9121967,-76.7592645,50.0,24.0,1.8461538461538463,11.30113,2.123681437166018,39.9122308,-76.7592658,48.10951,3.794439494671957,12.448948871699542,-1.8904899999999998,-6.202395211599999,4.239306962090192,13.908487853503987
902249839,Bix3 14,901270261.0,39.9125754,-76.7606217,40.0,26.0,2.0,13.45761,1.9319923820054228,39.912599,-76.7606086,42.91629,2.852956011823185,9.360092201829978,2.9162899999999965,9.567880883599988,4.079718785590257,13.384904580515938
909449951,Bix3 14,908569850.0,39.9132913,-76.7610775,40.0,12.0,0.9230769230769231,13.96607,0.8592252509116738,39.9133047,-76.761039,40.81469,3.606870381936522,11.83356462387262,0.8146899999999988,2.672867539599996,3.697733596162778,12.13167229163469
918649827,Bix3 14,916470268.0,39.9133736,-76.7602998,40.0,21.0,1.6153846153846154,15.70787,1.3369094600350016,39.9133746,-76.7602958,39.45758,0.3589183261438815,1.1775536011458922,-0.5424199999999999,-1.7795932327999997,0.6504166520330839,2.133912968656223
933196718,Bix3 14,932169698.0,39.9130527,-76.758948,50.0,26.0,2.0,13.41167,1.938610180536801,39.9130444,-76.7589535,48.89244,1.0355801257786126,3.3975726998595035,-1.1075599999999994,-3.633727150399998,1.5162834004590453,4.974683231562055
939494232,Bix3 14,937870210.0,39.9126947,-76.7585564,50.0,15.0,1.1538461538461537,13.03516,1.1507338613411726,39.9126934,-76.7585978,49.80686,3.534923544017597,11.597518560154692,-0.19313999999999965,-0.6336614375999988,3.54019597220972,11.614816553464538
947396733,Bix3 14,945270108.0,39.9121967,-76.7592645,50.0,24.0,1.8461538461538463,9.562639,2.509767439720353,39.9122368,-76.7592703,49.00799,4.487540484124128,14.722902321933805,-0.9920100000000005,-3.2546260884000016,4.595878962369769,15.078343534901231
957196785,Bix3 14,956369784.0,39.9125754,-76.7606217,40.0,26.0,2.0,14.56647,1.7849211236490377,39.9125953,-76.7606043,39.8241,2.665099297354321,8.74376437873195,-0.1758999999999986,-0.5770997559999954,2.6708978031288457,8.762788348417242
963797400,Bix3 14,962969808.0,39.9132913,-76.7610775,40.0,12.0,0.9230769230769231,13.98323,0.8581708231932107,39.9132974,-76.7610566,39.51435,1.907755308019082,6.259039924761325,-0.4856499999999997,-1.593339945999999,1.9686000705514015,6.45866185546786
973150218,Bix3 14,970969747.0,39.9133736,-76.7602998,40.0,21.0,1.6153846153846154,15.71292,1.3364797886070825,39.9133847,-76.7602956,40.28387,1.2855563251686422,4.217704613866288,0.2838700000000003,0.9313320508000009,1.3165246834302438,4.319306842385281
987694558,Bix3 14,986569811.0,39.9130527,-76.758948,50.0,26.0,2.0,12.55078,2.0715843955515116,39.9130477,-76.7589489,49.90069,0.5614070475522299,1.841886697891258,-0.09931000000000267,-0.3258202204000088,0.5701230999892148,1.8704826713686156
994094359,Bix3 14,992469541.0,39.9126947,-76.7585564,50.0,15.0,1.1538461538461537,13.18116,1.1379878553936071,39.9126972,-76.7586054,49.45434,4.189582873392644,13.745351074341523,-0.545659999999998,-1.7902231543999936,4.224967394977737,13.86144202813876
1002094683,Bix3 14,999870637.0,39.9121967,-76.7592645,50.0,24.0,1.8461538461538463,12.33782,1.9452382997968847,39.9122315,-76.7592724,49.07214,3.9289165936960644,12.890146717261796,-0.9278600000000026,-3.0441602024000085,4.036992665316633,13.244727016077421
1012295074,Bix3 14,1011369771.0,39.9125754,-76.7606217,40.0,26.0,2.0,13.19593,1.9703044802450451,39.9126029,-76.7606002,40.16514,3.566541217720626,11.701251088746538,0.16514000000000095,0.5417979176000032,3.5703623733873466,11.713787689104143
1019049722,Bix3 14,1018169751.0,39.9132913,-76.7610775,40.0,12.0,0.9230769230769231,13.62244,0.8808994570723013,39.913293,-76.7610634,39.50757,1.2176755673429664,3.994998708361498,-0.4924299999999988,-1.615584041199996,1.3134767193231915,4.3093069598242995
1027850342,Bix3 14,1025769769.0,39.9133736,-76.7602998,40.0,21.0,1.6153846153846154,15.80404,1.328774161543504,39.913381,-76.7602975,38.79815,0.8461406378203569,2.7760520501865398,-1.2018500000000003,-3.943077554000001,1.469829038177924,4.82227390161566
1041694858,Bix3 14,1040670163.0,39.9130527,-76.758948,50.0,26.0,2.0,12.4103,2.0950339637236812,39.9130401,-76.7589542,50.03537,1.4979465394992724,4.914522924650793,0.035370000000000346,0.11604331080000113,1.4983640652718033,4.915892759906344
1047450079,Bix3 14,1045969966.0,39.9126947,-76.7585564,50.0,15.0,1.1538461538461537,12.30694,1.218824500647602,39.912691,-76.7586095,52.18855,4.5487836943909095,14.923831495905471,2.1885499999999993,7.180282381999998,5.047889083652355,16.56131642120999
1054895024,Bix3 14,1052969587.0,39.9121967,-76.7592645,50.0,24.0,1.8461538461538463,12.3426,1.9444849545476643,39.912242,-76.7592751,50.47793,5.119064828629858,16.794832652361983,0.47793000000000063,1.568011861200002,5.14132685253673,16.867870790876605
1064894750,Bix3 14,1063969765.0,39.9125754,-76.7606217,40.0,26.0,2.0,12.76436,2.0369215534503886,39.9125962,-76.7606063,38.29887,2.66053651915809,8.728794633514628,-1.7011299999999991,-5.5811353491999975,3.1578945274777372,10.36054668153006
1070549693,Bix3 14,1077231264.0,39.9132913,-76.7610775,40.0,12.0,0.9230769230769231,13.70572,0.8755468519712938,39.9131559,-76.7607631,37.98585,30.76098494249527,100.92186983873619,-2.0141500000000008,-6.608103886000002,30.826855091866257,101.1379792595985
1086396500,Bix3 14,1077231304.0,39.9128923,-76.7603074,126.67,26.0,2.0,13.29984,1.9549107357682498,39.9126623,-76.7598343,40.58402,47.78599413886445,156.77820101055204,-86.08598,-282.43432662320004,98.45962212196423,323.0302666426251
1086750377,Bix3 14,1077231367.0,39.9123738,-76.759361,20.0,26.0,2.0,12.92282,2.011944761282754,39.9126363,-76.759857,40.56424,51.41066873996303,168.6701784288203,20.564239999999998,67.4679811616,55.370974590193114,181.66330827448917
1067249369,Bix3 14,1077231398.0,39.9126783,-76.7605412,30.0,26.0,2.0,13.97784,1.8600871093101652,39.9128083,-76.7608169,37.69003,27.609854339131353,90.58351450999571,7.69003,25.2297580252,28.66078537006532,94.0314510735251
1075196927,Bix3 14,1077231522.0,39.9133736,-76.7602998,40.0,21.0,1.6153846153846154,12.24206,1.7153975719772652,39.9133345,-76.7603029,38.25673,4.356983993447267,14.294567365061532,-1.7432700000000025,-5.719389946800009,4.692792325690079,15.396300773817039
1082694247,Bix3 14,1077231559.0,39.9130362,-76.7590123,60.0,26.0,2.0,12.98458,2.0023751249559094,39.9129549,-76.7597566,39.93969,64.1389563338799,210.42965349844656,-20.06031,-65.8146674604,67.20284039306264,220.48176687517565
1083350286,Bix3 14,1077249902.0,39.9129251,-76.7584974,60.0,28.0,2.1538461538461537,13.38354,2.092122114179059,39.9129014,-76.759751,40.0107,106.98072329002926,350.98663619885957,-19.9893,-65.581695012,108.83219776402481,357.0610277121232
1085797166,Bix3 14,1077249943.0,39.912275,-76.7586261,60.0,15.0,1.1538461538461537,13.93755,1.0762293229441329,39.9127063,-76.7598005,40.48332,111.0844626420727,364.4503484146178,-19.51668,-64.0311044112,112.78589733960733,370.03248342767733
1087249376,Bix3 14,1077249974.0,39.9121967,-76.7592645,60.0,24.0,1.8461538461538463,13.78838,1.7405960671231864,39.9126008,-76.7598922,40.57828,69.91377491859882,229.37590930393574,-19.42172,-63.7195558448,72.56127845570872,238.06194480862737
1067295240,Bix3 14,1077250118.0,39.9126001,-76.7605841,40.0,26.0,2.0,12.74895,2.0393836355150814,39.9128127,-76.7608188,37.67015,30.98528302428545,101.65775595739667,-2.3298500000000004,-7.643865074000002,31.072752776630075,101.94473021967902
1067393807,Bix3 14,1077250149.0,39.912777,-76.7610186,40.0,26.0,2.0,13.558,1.9176869744800118,39.9128236,-76.7608232,37.61657,17.45736154757354,57.27481005974118,-2.383429999999997,-7.819652481199991,17.619313572543035,57.80614874134209
1071194151,Bix3 14,1077250197.0,39.9134559,-76.7610615,40.0,20.0,1.5384615384615385,13.60068,1.4705147095586397,39.9132077,-76.7607172,38.04095,40.30990123744891,132.25033637587188,-1.9590499999999977,-6.427329601999992,40.35747780369067,132.4064274774605
1107094389,Bix3 14,1104669896.0,39.9126001,-76.7605841,40.0,26.0,2.0,13.25332,1.9617725973567377,39.9126533,-76.7606258,40.26258,6.904346229498699,22.65205528358851,0.2625799999999998,0.8614829671999994,6.9093375307038585,22.668430944234448
1110596341,Bix3 14,1109169660.0,39.912777,-76.7610186,40.0,26.0,2.0,13.31944,1.952034019448265,39.9127466,-76.761062,40.62057,5.014201391218577,16.450792492365558,0.6205700000000007,2.0359908788000025,5.052457096957709,16.57630334198273
1117750584,Bix3 14,1115969796.0,39.9134559,-76.7610615,40.0,20.0,1.5384615384615385,13.55507,1.4754626866552514,39.9134498,-76.7610473,39.8467,1.3884909874145142,4.5554167711490345,-0.15330000000000155,-0.5029527720000051,1.3969280984114154,4.583097582392108
1124993999,Bix3 14,1122769774.0,39.9133736,-76.7602998,40.0,21.0,1.6153846153846154,12.721,1.6508136152818174,39.9134002,-76.7602909,40.99879,3.054495352487049,10.02131053225361,0.9987899999999996,3.276870183599999,3.2136464215070366,10.543459725537145
1137095707,Bix3 14,1137069654.0,39.9130362,-76.7590123,60.0,26.0,2.0,12.38291,2.0996680101850047,39.9130322,-76.7590151,60.24088,0.5049776002603543,1.6567507100381809,0.2408799999999971,0.7902887391999904,0.5594868641574213,1.8355868834022342
1141850581,Bix3 14,1139069646.0,39.9129251,-76.7584974,60.0,28.0,2.1538461538461537,12.80363,2.186879814552592,39.9128769,-76.758588,63.17752,9.406611470644936,30.86158717735073,3.1775200000000012,10.424934716800005,9.928795128819454,32.57478821043602
1149194166,Bix3 14,1147769779.0,39.912275,-76.7586261,60.0,15.0,1.1538461538461537,13.10191,1.1448712439636664,39.9122783,-76.7586296,62.28167,0.4731639812823844,1.552375316350498,2.2816699999999983,7.485794202799994,2.330215042025733,7.645062718479706
1154294984,Bix3 14,1152369735.0,39.9121967,-76.7592645,60.0,24.0,1.8461538461538463,12.47742,1.9234745644532283,39.9121775,-76.7592679,59.07121,2.1551553493817033,7.070719876465468,-0.9287899999999993,-3.047211383599998,2.346773411317882,7.699388078788161
1164695080,Bix3 14,1164569658.0,39.9126001,-76.7605841,40.0,26.0,2.0,12.76793,2.036352016340942,39.9126107,-76.7605849,43.43359,1.180973045932277,3.8745836080164513,3.4335900000000024,11.265059415600009,3.631010551254096,11.912764656976488
1167994106,Bix3 14,1166769868.0,39.912777,-76.7610186,40.0,26.0,2.0,14.43059,1.8017281344699003,39.9127896,-76.7609918,37.91466,2.6817244420011623,8.798308818295093,-2.085340000000002,-6.841666885600008,3.397100071888736,11.14534179985544
1174149727,Bix3 14,1172569727.0,39.9134559,-76.7610615,40.0,20.0,1.5384615384615385,14.44042,1.3850012672761596,39.9134492,-76.761053,36.56705,1.039805636361091,3.411435923998922,-3.432949999999998,-11.262959677999994,3.5869682830920433,11.7682690218997
1181194203,Bix3 14,1179069797.0,39.9133736,-76.7602998,40.0,21.0,1.6153846153846154,12.14083,1.7297005229461249,39.9134038,-76.7602901,40.92075,3.459468824622324,11.349963698573905,0.9207499999999982,3.020833429999994,3.579902947152864,11.745088785137002
1193049791,Bix3 14,1192969705.0,39.9130362,-76.7590123,60.0,26.0,2.0,14.22495,1.8277744385744765,39.9130394,-76.7590066,57.40873,0.60262166457011,1.9771052619881997,-2.5912700000000015,-8.501542266800005,2.6604197194257257,8.728411432280698
1197895161,Bix3 14,1203969687.0,39.9129251,-76.7584974,60.0,28.0,2.1538461538461537,11.73697,2.3856242283996636,39.9128781,-76.7585995,60.59669,10.158745005167463,33.32921696275362,0.5966900000000024,1.9576444196000078,10.176253683753902,33.386660135807155
1210350024,Bix3 14,1208369751.0,39.9121967,-76.7592645,60.0,24.0,1.8461538461538463,12.08189,1.986444173883391,39.9121821,-76.7592787,59.49722,2.0260038188346923,6.646994368985612,-0.5027800000000013,-1.6495407352000044,2.0874575929423713,6.8486143692290495
1220350191,Bix3 14,1220169839.0,39.9126001,-76.7605841,40.0,26.0,2.0,13.23353,1.9647063179665591,39.9126098,-76.7605986,47.64894,1.6414291629075246,5.385266454833523,7.648940000000003,25.09494830960001,7.823079497259589,25.66627213778915
1281193929,Bix3 14,1271432025.0,39.912777,-76.7610186,40.0,26.0,2.0,13.40861,1.9390525938184495,39.9127982,-76.760874,38.4296,12.55960331289735,41.206048933086144,-1.5703999999999994,-5.1522311359999975,12.657400662748339,41.52690639037126
1265394114,Bix3 14,1271432056.0,39.9128923,-76.7603074,126.67,26.0,2.0,12.07637,2.152964839599979,39.913166,-76.759878,43.13355,47.63143029120068,156.27110175658282,-83.53645,-274.069726618,96.16179922499376,315.4914773693285
1271949905,Bix3 14,1271432124.0,39.9123738,-76.759361,20.0,26.0,2.0,13.20358,1.969162908847449,39.9126222,-76.7598525,42.12935,50.21548498905456,164.74897177148975,22.129350000000002,72.602856654,54.875341129768515,180.03721419218974
1278694795,Bix3 14,1271432156.0,39.9126783,-76.7605412,30.0,26.0,2.0,13.55778,1.9177180924900685,39.9125624,-76.7607035,40.27215,18.9183109075682,62.067951157986045,10.272150000000003,33.70128060600001,21.52718172956957,70.62723890564102
1261449774,Bix3 14,1271432187.0,39.9133736,-76.7602998,40.0,21.0,1.6153846153846154,13.16872,1.5946880182736058,39.9133122,-76.7602197,40.40504,9.661071161620914,31.69642870989236,0.4050399999999996,1.3288714335999987,9.669558076329201,31.724272919143896
1268249629,Bix3 14,1271432218.0,39.9130445,-76.7591089,60.0,26.0,2.0,13.15036,1.977132184974404,39.9129597,-76.7597495,41.15678,55.45930486825798,181.9531057839755,-18.843220000000002,-61.82158990480001,58.57304359890122,192.16878436101908
1269149975,Bix3 14,1271432250.0,39.9128181,-76.7582399,60.0,28.0,2.1538461538461537,14.32091,1.9551830156044554,39.9128751,-76.7597413,41.16232,128.2457048086217,420.7536381643184,-18.83768,-61.803414051199994,129.62183068311654,425.2684869783961
1271450303,Bix3 14,1271432281.0,39.9122051,-76.7584866,60.0,15.0,1.1538461538461537,12.23367,1.2261242946719995,39.9126665,-76.7598218,41.90882,124.93735533318561,409.89947287132867,-18.09118,-59.35426699120001,126.24038003524498,414.17448843483317
1272549914,Bix3 14,1271432312.0,39.9121967,-76.7592645,60.0,24.0,1.8461538461538463,12.60117,1.9045850504357928,39.9125734,-76.7598967,42.17229,68.29737730164523,224.07276734632973,-17.827710000000003,-58.48986407640001,70.58582711938271,231.58080504635558
1278249711,Bix3 14,1271450347.0,39.9126001,-76.7605841,40.0,26.0,2.0,13.13084,1.980071343493638,39.91253,-76.7606563,40.51674,9.936479905840127,32.60000073427652,0.5167399999999986,1.6953412615999957,9.949907192871933,32.644053514661955
1281449710,Bix3 14,1271450378.0,39.9129457,-76.7611259,40.0,26.0,2.0,11.94669,2.17633503505992,39.912825,-76.7608797,38.22795,24.9279151394049,81.78450110596516,-1.7720500000000001,-5.813812522,24.990820602770768,81.99088386639444
1281449710,Bix3 14,1271450544.0,39.9134724,-76.7611259,40.0,20.0,1.5384615384615385,11.94669,1.6741038731230156,39.912825,-76.7608797,38.22795,75.00872613129656,246.09162904060298,-1.7720500000000001,-5.813812522,75.02965518408271,246.16029391414594
1328895383,Bix3 14,1327869792.0,39.9130445,-76.7591089,60.0,26.0,2.0,12.11902,2.1453879934186095,39.9130389,-76.7591056,56.44235,0.6835380176043286,2.2425788696769855,-3.5576500000000024,-11.672080426000008,3.6227196612504358,11.88556357341688
1337993949,Bix3 14,1335069710.0,39.9128181,-76.7582399,60.0,28.0,2.1538461538461537,13.6822,2.0464545175483475,39.9127777,-76.7583531,57.85343,10.651666665993663,34.94641406445865,-2.146569999999997,-7.04255271879999,10.865807173346145,35.64897480660097
1345594027,Bix3 14,1344069817.0,39.9122051,-76.7584866,60.0,15.0,1.1538461538461537,12.83503,1.168676660670057,39.9122008,-76.7584787,58.53052,0.8264337810162746,2.7113970061094346,-1.4694799999999972,-4.821128763199991,1.685931275231837,5.5312707650316195
1351449723,Bix3 14,1349469642.0,39.9121967,-76.7592645,60.0,24.0,1.8461538461538463,12.2454,1.9599196432946249,39.9121709,-76.7592752,59.5938,3.011335380449369,9.879709569593508,-0.40619999999999834,-1.3326772079999945,3.0386081046337887,9.96918701400672
1362049754,Bix3 14,1361569638.0,39.9126001,-76.7605841,40.0,26.0,2.0,12.7615,2.0373780511695334,39.9126023,-76.7606059,50.33422,1.8758579160149698,6.154389685178553,10.334220000000002,33.904922344800006,10.503092207986944,34.458965039651886
1366993958,Bix3 14,1365769754.0,39.9129457,-76.7611259,40.0,26.0,2.0,14.11646,1.8418215331605798,39.9129514,-76.761128,43.6549,0.6588176810562647,2.1614754007166357,3.654899999999998,11.991142115999994,3.71380327250547,12.184394328566846
1372094806,Bix3 14,1370469823.0,39.9134724,-76.7611259,40.0,20.0,1.5384615384615385,14.56795,1.372876760285421,39.9134656,-76.7611184,38.12066,0.9906795752123433,3.2502611775396644,-1.8793399999999991,-6.165813845599997,2.1244681349323424,6.970040035811427
1380750631,Bix3 14,1378269728.0,39.9133736,-76.7602998,40.0,21.0,1.6153846153846154,13.31477,1.5771958509234483,39.9133851,-76.760295,37.81024,1.3430539223085636,4.406345030466828,-2.1897599999999997,-7.184252198399999,2.5688212658393375,8.427891561816331
1392895621,Bix3 14,1392769762.0,39.9130445,-76.7591089,60.0,26.0,2.0,13.93874,1.8653048984341485,39.913048,-76.759092,53.67957,1.4934164246184074,4.899660342545055,-6.320430000000002,-20.736319561200006,6.494469031585265,21.3073137775862
1401850283,Bix3 14,1398869794.0,39.9128181,-76.7582399,60.0,28.0,2.1538461538461537,11.6639,2.4005692778573207,39.9127836,-76.7583658,60.3106,11.405792478304214,37.420580194519594,0.3106000000000009,1.019028904000003,11.410020789557791,37.43445260721278
1410794693,Bix3 14,1408969847.0,39.9122051,-76.7584866,60.0,15.0,1.1538461538461537,12.32962,1.216582506192405,39.9122067,-76.7584947,63.39288,0.7135887929196155,2.3411706553623914,3.392879999999998,11.131496419199994,3.4671088329875746,11.375029343618953
1416949967,Bix3 14,1414869794.0,39.9121967,-76.7592645,60.0,24.0,1.8461538461538463,11.93709,2.0105402572988895,39.9121978,-76.7592627,58.96502,0.19634516385036532,0.6441770673668326,-1.0349799999999973,-3.3956037831999915,1.0534396156246553,3.456166828525994
1427149878,Bix3 14,1426669743.0,39.9126001,-76.7605841,40.0,26.0,2.0,12.21279,2.1289156695562603,39.9126081,-76.760591,45.48667,1.0669047038163673,3.5003436284688902,5.486669999999997,18.00088640279999,5.589439447379804,18.338056516541556
1431750810,Bix3 14,1430769775.0,39.9129457,-76.7611259,40.0,26.0,2.0,14.21632,1.8288839868545448,39.9129455,-76.7611221,40.3598,0.3249511557081905,1.0661127496936598,0.3597999999999999,1.1804462319999998,0.4848188255380443,1.590612995578237
1436895554,Bix3 14,1435169798.0,39.9134724,-76.7611259,40.0,20.0,1.5384615384615385,14.47468,1.3817231192675763,39.9134606,-76.7611161,39.47264,1.5561411719206848,5.10545020248426,-0.5273600000000016,-1.7301837824000053,1.6430714885684932,5.390654662555055
1446949851,Bix3 14,1456911034.0,39.9133736,-76.7602998,40.0,21.0,1.6153846153846154,13.33429,1.5748870018576169,39.9133072,-76.7601478,38.71952,14.923138663496498,48.96043025274585,-1.2804799999999972,-4.201050003199991,14.9779737147701,49.14033528236633
1457095032,Bix3 14,1456911070.0,39.9128923,-76.7603074,126.67,26.0,2.0,13.26977,1.9593406667937727,39.9126914,-76.7598054,42.20002,48.30610971637889,158.48461700188452,-84.46997999999999,-277.1324891832,97.30702830284785,319.24879073711537
1458094787,Bix3 14,1456911133.0,39.9123738,-76.759361,20.0,26.0,2.0,11.68073,2.225888279242821,39.9126195,-76.759855,42.29614,50.2297016391703,164.7956143258555,22.29614,73.1500679576,54.955807569898084,180.30121170762442
1465094813,Bix3 14,1456911164.0,39.9126783,-76.7605412,30.0,26.0,2.0,12.47387,2.0843571401658028,39.9125694,-76.7607085,39.65928,18.719767999309656,61.416563642855095,9.659280000000003,31.69055219520001,21.064933042057785,69.11067492170486
1446949851,Bix3 14,1456911213.0,39.9133736,-76.7602998,40.0,21.0,1.6153846153846154,13.33429,1.5748870018576169,39.9133072,-76.7601478,38.71952,14.923138663496498,48.96043025274585,-1.2804799999999972,-4.201050003199991,14.9779737147701,49.14033528236633
1453449536,Bix3 14,1456930946.0,39.9130445,-76.7591089,70.0,26.0,2.0,12.68618,2.049474309839526,39.9129518,-76.7597529,40.37576,55.90054887943579,183.4007567856081,-29.62424,-97.1923915616,63.265053233201265,207.56251724961604
1454593708,Bix3 14,1456930978.0,39.9128181,-76.7582399,70.0,28.0,2.1538461538461537,11.22485,2.494465404882916,39.9128711,-76.7597495,41.26516,128.92331508525692,422.9767690643143,-28.73484,-94.2744124656,132.08676013286885,433.35552611432144
1457249921,Bix3 14,1456931009.0,39.9122051,-76.7584866,70.0,15.0,1.1538461538461537,12.40057,1.2096218157713718,39.9126799,-76.7598121,42.23837,124.80662134051322,409.4705555588094,-27.761629999999997,-91.08146616919998,127.85695456521381,419.4782108157361
1458550049,Bix3 14,1456931040.0,39.9121967,-76.7592645,70.0,24.0,1.8461538461538463,14.3739,1.6696929852023459,39.9125876,-76.7598852,42.39749,68.51647668332522,224.79159736172073,-27.602510000000002,-90.5594189084,73.86749038241891,242.34741714625525
1464649730,Bix3 14,1456931072.0,39.9126001,-76.7605841,40.0,26.0,2.0,12.79243,2.0324520048184747,39.9125315,-76.7606576,40.08267,9.876151987562077,32.40207448687316,0.08267000000000024,0.2712270428000008,9.876497983107493,32.40320964289839
1466894767,Bix3 14,1456931106.0,39.9129457,-76.7611259,40.0,26.0,2.0,13.95897,1.8626016102907306,39.9127585,-76.7608327,38.49028,32.545754473226495,106.77741310594041,-1.5097200000000015,-4.9531497648000045,32.580751813147934,106.89223377864826
1466894767,Bix3 14,1456931137.0,39.9134724,-76.7611259,40.0,20.0,1.5384615384615385,13.95897,1.4327704694544081,39.9127585,-76.7608327,38.49028,83.25116143950152,273.13374049717413,-1.5097200000000015,-4.9531497648000045,83.26484933934813,273.17864830650694
1457249921,Bix3 14,1467195244.0,39.9128923,-76.7603074,126.67,26.0,2.0,12.40057,2.0966778140037112,39.9126799,-76.7598121,42.23837,48.411234797882535,158.82951557428493,-84.43163,-277.0066689692,97.32598727530387,319.31099209230797
1458094787,Bix3 14,1467195312.0,39.9123738,-76.759361,20.0,26.0,2.0,11.68073,2.225888279242821,39.9126195,-76.759855,42.29614,50.2297016391703,164.7956143258555,22.29614,73.1500679576,54.955807569898084,180.30121170762442
1465094813,Bix3 14,1467195344.0,39.9126783,-76.7605412,30.0,26.0,2.0,12.47387,2.0843571401658028,39.9125694,-76.7607085,39.65928,18.719767999309656,61.416563642855095,9.659280000000003,31.69055219520001,21.064933042057785,69.11067492170486
1475549816,Bix3 14,1467195375.0,39.9133736,-76.7602998,40.0,21.0,1.6153846153846154,13.20679,1.5900911576545096,39.913326,-76.7602957,38.52617,5.305915712699341,17.407860506852504,-1.4738299999999995,-4.835400417199998,5.50680637204267,18.066950617652473
1457249921,Bix3 14,1467195508.0,39.9130445,-76.7591089,70.0,26.0,2.0,12.40057,2.0966778140037112,39.9126799,-76.7598121,42.23837,72.41273650038306,237.57460241991677,-27.761629999999997,-91.08146616919998,77.55199873459618,254.43569952841253
1457249921,Bix3 14,1467212727.0,39.9128181,-76.7582399,70.0,28.0,2.1538461538461537,12.40057,2.2579607227732272,39.9126799,-76.7598121,42.23837,135.00717835538208,442.93695103547174,-27.761629999999997,-91.08146616919998,137.8319495172975,452.2045732543303
1457249921,Bix3 14,1467212758.0,39.9122051,-76.7584866,70.0,15.0,1.1538461538461537,12.40057,1.2096218157713718,39.9126799,-76.7598121,42.23837,124.80662134051322,409.4705555588094,-27.761629999999997,-91.08146616919998,127.85695456521381,419.4782108157361
1458550049,Bix3 14,1467212789.0,39.9121967,-76.7592645,70.0,24.0,1.8461538461538463,14.3739,1.6696929852023459,39.9125876,-76.7598852,42.39749,68.51647668332522,224.79159736172073,-27.602510000000002,-90.5594189084,73.86749038241891,242.34741714625525
1464649730,Bix3 14,1467212824.0,39.9126001,-76.7605841,40.0,26.0,2.0,12.79243,2.0324520048184747,39.9125315,-76.7606576,40.08267,9.876151987562077,32.40207448687316,0.08267000000000024,0.2712270428000008,9.876497983107493,32.40320964289839
1468495019,Bix3 14,1467212920.0,39.9129457,-76.7611259,40.0,26.0,2.0,13.75336,1.8904471343729823,39.9129362,-76.7608564,37.50599,23.01608286026664,75.5120852912772,-2.494010000000003,-8.18244776840001,23.15081329264179,75.95411428303089
1471193943,Bix3 14,1467212951.0,39.9134724,-76.7611259,40.0,20.0,1.5384615384615385,13.94049,1.4346697999855098,39.9131755,-76.7607341,37.03568,46.98704018801131,154.15696093043505,-2.9643200000000007,-9.725459628800003,47.08045389216411,154.4634363475677
1514149973,Bix3 14,1513169772.0,39.9130445,-76.7591089,70.0,26.0,2.0,13.62119,1.908790641639974,39.9130526,-76.7590968,66.64262,1.3701427324838864,4.495219082442434,-3.3573800000000062,-11.01502659920002,3.6261951921784976,11.896966234306902
1524194014,Bix3 14,1520969645.0,39.9128181,-76.7582399,70.0,28.0,2.1538461538461537,11.82321,2.3682231813526107,39.9127725,-76.7583578,72.64153,11.264809889754583,36.958038878702425,2.641530000000003,8.66643728520001,11.570376942572471,37.96055548826946
1531950163,Bix3 14,1530369772.0,39.9122051,-76.7584866,70.0,15.0,1.1538461538461537,12.55552,1.1946936486899786,39.9122099,-76.7584931,68.7533,0.7697719173681064,2.525498497377978,-1.2467000000000041,-4.0902232280000135,1.4651995409392473,4.8070852618951205
1537794541,Bix3 14,1535869801.0,39.9121967,-76.7592645,70.0,24.0,1.8461538461538463,11.2993,2.124025382103316,39.9121814,-76.7592702,68.07697,1.7698796786343047,5.806692044850572,-1.9230299999999971,-6.309153745199991,2.6135260583630417,8.574560833319802
1547550137,Bix3 14,1547069631.0,39.9126001,-76.7605841,40.0,26.0,2.0,15.18659,1.7120367376744878,39.9126237,-76.7606054,53.3681,3.192559330647829,10.474276354362622,13.368099999999998,43.85859720399999,13.74403625903637,45.09198392009689
1551449841,Bix3 14,1550469638.0,39.9129457,-76.7611259,40.0,26.0,2.0,15.0229,1.7306911448521922,39.9129551,-76.7611128,44.25154,1.5304097205514746,5.0210294275741,4.2515399999999985,13.948622493599995,4.518600035891474,14.824803741754183
1556150076,Bix3 14,1554569757.0,39.9134724,-76.7611259,40.0,20.0,1.5384615384615385,14.22466,1.406009001269626,39.9134689,-76.7611244,37.06198,0.40978567750118683,1.3444412421729939,-2.9380200000000016,-9.639173536800005,2.966460150058503,9.732481118717939
1564094384,Bix3 14,1561869819.0,39.9133736,-76.7602998,40.0,21.0,1.6153846153846154,13.61957,1.5418988998918468,39.9134013,-76.7602875,39.00318,3.2547644152265627,10.678361284051915,-0.9968199999999996,-3.2704069287999986,3.4039890585936243,11.167943462996307
1576350602,Bix3 14,1576169810.0,39.9130445,-76.7591089,70.0,26.0,2.0,14.7948,1.75737421256117,39.9130398,-76.7590861,61.01518,2.0141533674318426,6.608114934005086,-8.98482,-29.4777568488,9.207812129921908,30.209358348332994
1585794591,Bix3 14,1582569718.0,39.9128181,-76.7582399,70.0,28.0,2.1538461538461537,12.30884,2.27478787603056,39.9127683,-76.7583589,67.52697,11.565013462082353,37.94295876693827,-2.4730299999999943,-8.113615745199981,11.826470891988278,38.80075876127082
1594794917,Bix3 14,1593069628.0,39.9122051,-76.7584866,70.0,15.0,1.1538461538461537,12.96472,1.15698603594987,39.9121977,-76.7584779,67.3217,1.1083129221803176,3.6361973676060733,-2.678299999999993,-8.787073771999976,2.8985597153537888,9.509710656521325
1600834709,Bix3 14,1598869742.0,39.9121967,-76.7592645,70.0,24.0,1.8461538461538463,12.64239,1.8983752281016484,39.912182,-76.7592662,71.32684,1.6414471552766017,5.3853254849176855,1.3268400000000042,4.353149745600014,2.1106523041859973,6.924712505665587
1610594045,Bix3 14,1610069655.0,39.9126001,-76.7605841,40.0,26.0,2.0,14.88316,1.7469408378328257,39.9126184,-76.7606138,59.55286,3.2501058161435017,10.663077165836246,19.552860000000003,64.1498052024,19.821138261858977,65.02998325503741
1614394229,Bix3 14,1613369751.0,39.9129457,-76.7611259,40.0,26.0,2.0,15.46719,1.6809776048525944,39.9129543,-76.7611377,49.95837,1.388671755047923,4.556009840831428,9.958370000000002,32.671818630800004,10.054727360807348,32.98795171443118
1618895269,Bix3 14,1617269639.0,39.9134724,-76.7611259,40.0,20.0,1.5384615384615385,12.63403,1.583026160298812,39.9134642,-76.7611056,44.41655,1.9573216102839732,6.4216590318840705,4.416550000000001,14.489993902000002,4.830840691700012,15.849215374957067
736913682,Bix3 4-1,734135673.0,40.8015794,-77.893517,40.0,24.0,2.0,15.92831,1.5067511870374195,40.8015459,-77.8935214,49.92225,3.744453549841949,12.28495298446346,9.922249999999998,32.55331468999999,10.605280639823915,34.79422893435989
748256851,Bix3 4-1,745833391.0,40.8010921,-77.8944932,40.0,24.0,2.0,13.8417,1.7338910682936346,40.801068,-77.8944501,43.3237,4.511545305572451,14.80165830033432,3.3237000000000023,10.904527908000007,5.603661547080876,18.38471695012482
760656082,Bix3 4-1,759135678.0,40.8003693,-77.8937852,40.0,24.0,2.0,12.72781,1.8856346849929408,40.800492,-77.8938404,38.68769,14.417159965235518,47.300395100343295,-1.3123099999999963,-4.305479140399989,14.47676272511537,47.49594221906751
772313299,Bix3 4-1,769935850.0,40.8008647,-77.8929698,40.0,24.0,2.0,12.51137,1.9182551551109115,40.8008647,-77.8929685,36.00689,0.109455703576211,0.3591066505209763,-3.9931100000000015,-13.100755012400004,3.9946098712071216,13.105675849851172
780713909,Bix3 4-1,778735863.0,40.8015794,-77.893517,40.0,24.0,2.0,13.63165,1.7606085837004324,40.8015076,-77.8935606,35.52112,8.789357496624973,28.83647564922708,-4.478879999999997,-14.694488659199989,9.864743851610012,32.3646462181162
792613218,Bix3 4-1,789935666.0,40.8010921,-77.8944932,40.0,24.0,2.0,12.00589,1.999018814931671,40.8010839,-77.8943873,38.26473,8.96292554395243,29.40592464162089,-1.73527,-5.693143226799999,9.129359028942556,29.951966276515893
809356221,Bix3 4-1,806033542.0,40.8003693,-77.8937852,40.0,24.0,2.0,12.49086,1.921404931285756,40.8003882,-77.89378,42.35849,2.1472874602793497,7.044906591182902,2.3584900000000038,7.737828331600011,3.1895640011093924,10.46444915739974
820856568,Bix3 4-1,818132814.0,40.8008647,-77.8929698,40.0,24.0,2.0,12.93602,1.8552847011677471,40.8008757,-77.892993,39.50672,2.3048980052678383,7.562001571602934,-0.4932799999999986,-1.6183727551999951,2.357091422301574,7.733239821943896
830013412,Bix3 4-1,827732881.0,40.8015794,-77.893517,40.0,24.0,2.0,12.88355,1.8628405990584893,40.8015256,-77.8935395,38.20748,6.276683644810401,20.59279476923976,-1.7925200000000032,-5.880971316800011,6.527624799835725,21.41609254829304
843655829,Bix3 4-1,840233626.0,40.8010921,-77.8944932,40.0,24.0,2.0,12.31405,1.9489932231881468,40.8010834,-77.8944061,39.70783,7.397074770912759,24.268618791401416,-0.2921699999999987,-0.9585630227999956,7.402842594258915,24.287542096948417
861814112,Bix3 4-1,858833463.0,40.8003693,-77.8937852,40.0,24.0,2.0,11.58033,2.0724797997984514,40.8004277,-77.8937637,40.7424,6.743147136138101,22.12318685012733,0.7424000000000035,2.4356956160000114,6.783892028887804,22.256864324056263
872559196,Bix3 4-1,870533101.0,40.8008647,-77.8929698,40.0,24.0,2.0,11.87554,2.020960731048861,40.8008764,-77.8930375,38.54285,5.846779143763549,19.182346886025204,-1.4571499999999986,-4.780676005999996,6.025621335468104,19.769099502257173
881112901,Bix3 4-1,879132901.0,40.8015794,-77.893517,40.0,24.0,2.0,12.73867,1.8840271394109431,40.8015099,-77.8935678,38.74276,8.83461745932969,28.98496634526722,-1.257240000000003,-4.12480328160001,8.923626957145451,29.276992266081084
893913392,Bix3 4-1,891233778.0,40.8010921,-77.8944932,40.0,24.0,2.0,11.23758,2.135691136347861,40.8010892,-77.8943465,40.30959,12.3558240262117,40.53748169815639,0.30959,1.0157152556000002,12.35970199215217,40.55020468393252
910412888,Bix3 4-1,907033559.0,40.8003693,-77.8937852,40.0,24.0,2.0,12.01621,1.9973019779115049,40.8004187,-77.8937775,41.80254,5.53269750043728,18.151895267334645,1.8025400000000005,5.913845333600001,5.818925337460941,19.09096300415536
570734519,Bix3 5-1,568732866.0,40.8015023,-77.8934151,40.0,26.0,2.0,13.34844,1.9477931503606407,40.8014398,-77.8934429,41.64983,7.335122011368056,24.065361699776773,1.6498300000000017,5.412828257200005,7.518374422077964,24.66658353893027
581112860,Bix3 5-1,578832709.0,40.8010718,-77.8945524,40.0,26.0,2.0,13.60147,1.9115580889418569,40.80105,-77.8944497,36.89034,8.980507356939691,29.46360775694201,-3.109659999999998,-10.202296914399994,9.503657069973007,31.17997826145024
593015319,Bix3 5-1,590932613.0,40.8003734,-77.8937638,40.0,26.0,2.0,12.88052,2.0185520460354085,40.8004269,-77.8937509,39.73859,6.048922403692929,19.84554657893191,-0.2614099999999979,-0.8576443843999931,6.054568311118328,19.86406989784945
602672736,Bix3 5-1,600733069.0,40.8008444,-77.8928894,40.0,26.0,2.0,13.20442,1.9690376404264631,40.80086,-77.8929355,40.26867,4.251643909271656,13.94896340329482,0.2686700000000002,0.8814632828000006,4.260124352662346,13.976786381188733
610054731,Bix3 5-1,608132628.0,40.8015023,-77.8934151,40.0,26.0,2.0,14.1046,1.843370248004197,40.801434,-77.8934472,39.39109,8.063205310911446,26.454086512250708,-0.6089100000000016,-1.9977362844000053,8.086164187920657,26.529410914297607
620334632,Bix3 5-1,618332881.0,40.8010718,-77.8945524,40.0,26.0,2.0,14.12449,1.8407744279616467,40.8010568,-77.8944718,38.36796,6.988311884742006,22.927533163936964,-1.6320400000000037,-5.354462113600011,7.176354057599609,23.544469446335103
633215183,Bix3 5-1,631432611.0,40.8003734,-77.8937638,40.0,26.0,2.0,14.02985,1.8531915879357228,40.8004006,-77.8937482,40.68557,3.29818226070105,10.820808288198432,0.6855699999999985,2.249245478799995,3.368681114279457,11.052103746972614
643472789,Bix3 5-1,641732667.0,40.8008444,-77.8928894,40.0,26.0,2.0,13.73836,1.8925111876526748,40.8008612,-77.8929343,39.87634,4.217030186448223,13.835401316906786,-0.1236600000000009,-0.4057086744000032,4.2188428969346,13.841348529978912
650755037,Bix3 5-1,648832713.0,40.8015023,-77.8934151,40.0,26.0,2.0,13.72987,1.8936814405380389,40.801463,-77.8934388,38.48458,4.805116141048048,15.764817240196075,-1.5154199999999989,-4.971850552799996,5.038416309254376,16.530237764054124
661954733,Bix3 5-1,660232574.0,40.8010718,-77.8945524,40.0,26.0,2.0,13.17692,1.973146987308112,40.8010458,-77.8944714,38.40679,7.407712351506803,24.30351899131758,-1.5932099999999991,-5.227067096399997,7.577105013576521,24.8592692127424
674313232,Bix3 5-1,672132682.0,40.8003734,-77.8937638,40.0,26.0,2.0,14.17263,1.8345218918436448,40.8004092,-77.8937527,40.18868,4.09011129838988,13.419000752209454,0.1886799999999979,0.6190288911999933,4.094460962766228,13.433271305081952
683816189,Bix3 5-1,681832985.0,40.8008444,-77.8928894,40.0,26.0,2.0,13.39919,1.9404158012536576,40.8008654,-77.8929611,39.50124,6.473017190182744,21.23693371823916,-0.4987599999999972,-1.636351758399991,6.49220402344237,21.299882648270664
690815654,Bix3 5-1,688832562.0,40.8015023,-77.8934151,40.0,26.0,2.0,14.01547,1.85509297940062,40.8014529,-77.8934456,37.34898,6.065057455584387,19.89848310257948,-2.6510200000000026,-8.697572456800009,6.6191259981918895,21.71629333990788
702014979,Bix3 5-1,700032475.0,40.8010718,-77.8945524,40.0,26.0,2.0,12.7653,2.036771560402028,40.8010514,-77.8944471,39.80713,9.151631985196536,30.025040282312204,-0.1928699999999992,-0.6327756107999974,9.153664120414966,30.03170739282224
713912735,Bix3 5-1,711732620.0,40.8003734,-77.8937638,40.0,26.0,2.0,12.20074,2.131018282497619,40.8004383,-77.8937473,39.53905,7.351058830390087,24.11764785309701,-0.4609499999999968,-1.5123031979999897,7.365496645193458,24.165016013416505
722816048,Bix3 5-1,720732853.0,40.8008444,-77.8928894,40.0,26.0,2.0,13.79497,1.884744946890062,40.8008606,-77.8929628,38.82207,6.437359694141967,21.11994717892873,-1.1779300000000037,-3.8645998612000114,6.544243188991647,21.47061482417136
730112836,Bix3 5-1,728032600.0,40.8015023,-77.8934151,40.0,26.0,2.0,13.89842,1.8707162396876769,40.8014672,-77.8934363,38.75687,4.292740679114894,14.08379532966731,-1.2431300000000007,-4.078510629200002,4.469115654693645,14.662453404545095
741433886,Bix3 5-1,739432719.0,40.8010718,-77.8945524,40.0,26.0,2.0,13.68719,1.899586401591561,40.8010605,-77.8944613,39.50801,7.772588093767046,25.50061792155468,-0.4919900000000012,-1.614140471600004,7.788143542300004,25.551652859319542
753755043,Bix3 5-1,751632486.0,40.8003734,-77.8937638,40.0,26.0,2.0,13.56327,1.916941858416149,40.8004108,-77.8937522,38.28704,4.272984815096497,14.01897950076119,-1.7129600000000025,-5.619947686400008,4.6035455022889975,15.103496225729836
762355521,Bix3 5-1,760332793.0,40.8008444,-77.8928894,40.0,26.0,2.0,13.2239,1.9661370700020413,40.8008613,-77.8929764,37.66866,7.562450526785249,24.81119018629812,-2.3313399999999973,-7.648753525599991,7.913646704628307,25.96340865441274
769713325,Bix3 5-1,767632591.0,40.8015023,-77.8934151,40.0,26.0,2.0,13.59428,1.9125691099491848,40.801442,-77.8934421,39.28552,7.081737413558431,23.23404737589904,-0.7144800000000018,-2.344094563200006,7.117688280965474,23.351996419722767
781215589,Bix3 5-1,779132589.0,40.8010718,-77.8945524,40.0,26.0,2.0,14.01126,1.8556503840482583,40.8010455,-77.894435,38.95557,10.308427023885008,33.820299717042886,-1.0444299999999984,-3.4266077211999946,10.36120175132512,33.993445153817504
793112737,Bix3 5-1,790932698.0,40.8003734,-77.8937638,40.0,26.0,2.0,12.61041,2.061788633359264,40.8004338,-77.8937507,39.83794,6.808013931507024,22.336004427045506,-0.1620599999999967,-0.5316929303999893,6.809942520696759,22.342331819602755
801816138,Bix3 5-1,799732742.0,40.8008444,-77.8928894,40.0,26.0,2.0,13.10017,1.9847070686868948,40.8008639,-77.8929833,40.30663,8.19817926143959,26.896914448101462,0.3066299999999984,1.006003969199995,8.20391157677837,26.91572125755755
809193660,Bix3 5-1,807132725.0,40.8015023,-77.8934151,40.0,26.0,2.0,14.31924,1.8157388241275367,40.8014301,-77.8934454,39.31749,8.42602529976592,27.64444084448402,-0.6825100000000006,-2.239206108400002,8.453621842287207,27.73498068504956
820433871,Bix3 5-1,818232658.0,40.8010718,-77.8945524,40.0,26.0,2.0,13.73686,1.892717840903962,40.8010508,-77.8944439,40.24097,9.429194574137112,30.935678726612004,0.2409699999999972,0.790584014799991,9.432273154326944,30.945779055642014
831154524,Bix3 5-1,828832687.0,40.8003734,-77.8937638,40.0,26.0,2.0,12.27843,2.117534570787959,40.8004527,-77.8937504,40.14546,8.892115887636137,29.173609488792145,0.1454599999999999,0.4772309863999997,8.8933055480373,29.177512574222696
839472874,Bix3 5-1,837332764.0,40.8008444,-77.8928894,40.0,26.0,2.0,13.92372,1.8673170675652773,40.8008629,-77.8929617,41.02281,6.42579054491281,21.081990651371743,1.0228099999999998,3.3556759604,6.506683058455427,21.3473860455029
846754666,Bix3 5-1,844632320.0,40.8015023,-77.8934151,40.0,26.0,2.0,14.07091,1.847783832033607,40.8014559,-77.8934344,40.42723,5.410681683963221,17.75158089601389,0.4272300000000015,1.401673273200005,5.42752261700263,17.806833302766908
576162071,Bix3 11,573981440.0,39.9123985,-76.7594844,40.0,25.0,1.9230769230769231,12.82521,1.9492858206610264,39.9124101,-76.7594978,40.52436,1.7238303632567216,5.655611608987182,0.5243600000000015,1.720341262400005,1.801817008157544,5.911473313043596
585261832,Bix3 11,584881546.0,39.9126783,-76.7605895,40.0,5.0,0.3846153846153846,13.92997,0.3589383178858246,39.9126663,-76.7605921,40.04662,1.3530220550958258,4.439048879240589,0.0466199999999972,0.1529527607999908,1.3538249908964348,4.44168318313266
594406678,Bix3 11,593181597.0,39.9130897,-76.7599458,35.0,15.0,1.1538461538461535,14.92205,1.0052238130819826,39.9131377,-76.7599664,35.88034,5.620682379459557,18.440559577826093,0.8803399999999968,2.888254685599989,5.689206352943013,18.66537577098956
602261444,Bix3 11,600281542.0,39.9125054,-76.7592484,40.0,26.0,2.0,12.75066,2.0391101323382474,39.9125128,-76.7593092,38.18655,5.251950691176028,17.230809905637962,-1.8134500000000031,-5.94963929800001,5.556220564830412,18.22907067791821
613806766,Bix3 11,612681682.0,39.912777,-76.7605036,40.0,10.0,0.7692307692307693,11.82109,0.8459456784442044,39.9127568,-76.760523,41.77538,2.790565124201608,9.155397682085605,1.7753799999999984,5.8247377191999945,3.3074503559101727,10.85121542568433
619162331,Bix3 11,617481469.0,39.9131884,-76.7604017,35.0,20.0,1.5384615384615383,13.88583,1.4403172154635338,39.913201,-76.7604147,35.66936,1.7872012461101696,5.8635213362880885,0.6693599999999975,2.196063062399992,1.9084368220346568,6.261275863204182
572712523,Bix3 12,572032208.0,39.9130157,-76.7591304,40.0,10.0,0.7692307692307693,11.68186,0.856028064024051,39.9130117,-76.7591282,39.47677,0.4828743178316945,1.5842333769149368,-0.5232299999999981,-1.7166339131999937,0.7119952525975313,2.3359425045320843
580356987,Bix3 12,578532155.0,39.9122915,-76.7594146,40.0,25.0,1.9230769230769231,12.70353,1.9679569379534665,39.9123379,-76.7594437,40.01252,5.726984247745811,18.78931899937437,0.012520000000002,0.0410761168000068,5.7269979329775085,18.78936389842993
589557367,Bix3 12,589132324.0,39.9126041,-76.7606163,40.0,5.0,0.3846153846153846,12.31349,0.406058720963756,39.9126015,-76.7606148,40.18517,0.3162377002799813,1.037525296586574,0.1851699999999994,0.607513142799998,0.3664617469509895,1.2023023578666845
598912528,Bix3 12,597832289.0,39.9131349,-76.7598277,35.0,15.0,1.1538461538461535,14.46323,1.037112733462719,39.9131402,-76.7598294,34.66817,0.6070781790656147,1.9917263730056312,-0.3318299999999965,-1.0886811371999885,0.6918490184987041,2.2698459338512884
605612127,Bix3 12,603732558.0,39.9125054,-76.7592484,40.0,26.0,2.0,13.59235,1.9128406787641576,39.912532,-76.7593097,40.40431,6.008602781345307,19.71326434914894,0.4043100000000024,1.326476420400008,6.022190129852309,19.75784226562465
616712552,Bix3 12,615832091.0,39.9128593,-76.7606002,40.0,10.0,0.7692307692307693,11.83062,0.845264238053458,39.9128551,-76.7606059,39.76025,0.6743157519196101,2.2123220915279336,-0.2397500000000008,-0.7865813900000026,0.7156687751934617,2.347994744405717
622157408,Bix3 12,620732306.0,39.9133118,-76.7603695,35.0,20.0,1.5384615384615383,14.91885,1.3405859030689362,39.9133385,-76.760384,34.08221,3.2170821428941605,10.554731777692878,-0.9177899999999966,-3.0111221435999886,3.3454380876394167,10.975847095450904
630312017,Bix3 12,629632089.0,39.9130157,-76.7591304,40.0,10.0,0.7692307692307693,12.28996,0.8136722983638677,39.9130088,-76.7591369,40.64409,0.9468391640941518,3.106427803126657,0.6440899999999985,2.113156235599995,1.1451446767821567,3.757036461373971
638112367,Bix3 12,636232130.0,39.9122915,-76.7594146,40.0,25.0,1.9230769230769231,12.49746,2.000406482597264,39.9123337,-76.759439,40.12321,5.134645368654436,16.84594991129622,0.1232100000000002,0.4042322964000008,5.136123418098951,16.850799155035762
647512780,Bix3 12,647132022.0,39.9126041,-76.7606163,40.0,5.0,0.3846153846153846,13.37818,0.3737429157030328,39.9125995,-76.7606193,38.68237,0.5720855661721952,1.8769212089203848,-1.3176300000000012,-4.322933209200004,1.4364646573872133,4.712810706542265
656712724,Bix3 12,655632076.0,39.9131349,-76.7598277,35.0,15.0,1.1538461538461535,14.93893,1.0040879768497477,39.9131324,-76.7598249,34.15988,0.3665815644709837,1.2026954599789823,-0.8401199999999989,-2.7562993007999963,0.9166153270647356,3.007268229647067
663712545,Bix3 12,661832132.0,39.9125054,-76.7592484,40.0,26.0,2.0,12.54198,2.0730379094847864,39.9125248,-76.7593027,40.81179,5.110408553365269,16.766432798222908,0.811790000000002,2.6633531036000067,5.174483412516548,16.976652159120793
674812280,Bix3 12,673932169.0,39.9128593,-76.7606002,40.0,10.0,0.7692307692307693,12.38692,0.8073031875559058,39.9128591,-76.7605983,39.87818,0.1636139317828051,0.5367911319502984,-0.1218199999999996,-0.3996719287999987,0.2039843892885637,0.6692401437534914
680356968,Bix3 12,678932033.0,39.9133118,-76.7603695,35.0,20.0,1.5384615384615383,14.74812,1.3561050493215403,39.9133342,-76.7603808,34.6749,2.67147464837058,8.764680885360132,-0.325099999999999,-1.0666010839999969,2.691183161155464,8.829341362445291
688312033,Bix3 12,687532209.0,39.9130157,-76.7591304,40.0,10.0,0.7692307692307693,11.64249,0.8589227905714327,39.9130113,-76.7591281,41.42165,0.5272669090349273,1.729878365838151,1.4216499999999996,4.664206185999999,1.5162780470161947,4.974665667772612
695612317,Bix3 12,694032023.0,39.9122915,-76.7594146,40.0,25.0,1.9230769230769231,15.3777,1.6257307659793077,39.9123323,-76.759438,39.35368,4.957734344586904,16.265533147094498,-0.6463200000000029,-2.1204725088000096,4.999685927525502,16.40316957846277
704112171,Bix3 12,703731996.0,39.9126041,-76.7606163,40.0,5.0,0.3846153846153846,12.29754,0.4065853821170738,39.9126014,-76.7606207,39.30661,0.4807241780406103,1.577179112282756,-0.6933900000000008,-2.274901647600003,0.8437330309125165,2.768153077139021
713256161,Bix3 12,712232099.0,39.9131349,-76.7598277,35.0,15.0,1.1538461538461535,13.82085,1.085316749693398,39.9131475,-76.759836,35.61213,1.5701800859009003,5.151509633027111,0.6121300000000005,2.008300589200001,1.685279988328278,5.529133996906947
720012565,Bix3 12,718132016.0,39.9125054,-76.7592484,40.0,26.0,2.0,12.53394,2.0743676768837256,39.9125155,-76.7592911,40.69758,3.812162750012446,12.507096036750834,0.6975800000000021,2.288648367200006,3.875461609793401,12.714769467874582
731056599,Bix3 12,730232019.0,39.9128593,-76.7606002,40.0,10.0,0.7692307692307693,11.29416,0.8854133463666178,39.9128572,-76.7605978,39.47389,0.3106130148581912,1.0190716036673482,-0.5261100000000027,-1.726082732400009,0.6109600454197458,2.004462155414919
736557883,Bix3 12,735132211.0,39.9133118,-76.7603695,35.0,20.0,1.5384615384615383,15.24911,1.311551952868069,39.9133367,-76.760391,35.36232,3.321848615809666,10.898453812692985,0.3623199999999968,1.1887139487999898,3.34154964182138,10.963089726873257
745012516,Bix3 12,744332036.0,39.9130157,-76.7591304,40.0,10.0,0.7692307692307693,12.38363,0.8075176664677481,39.913007,-76.7591364,39.897,1.094715175514453,3.591585336434838,-0.1030000000000015,-0.337926520000005,1.099550051385402,3.607447790587282
752612325,Bix3 12,750632072.0,39.9122915,-76.7594146,40.0,25.0,1.9230769230769231,12.10895,2.064588589431784,39.9123331,-76.7594358,41.15184,4.967946007079518,16.299035977866765,1.15184,3.7790027456,5.09972772948295,16.731390723996842
761812063,Bix3 12,761432121.0,39.9126041,-76.7606163,40.0,5.0,0.3846153846153846,11.74297,0.4257866621476509,39.9126074,-76.7606156,40.40699,0.3718734230192533,1.220057201178487,0.4069900000000004,1.3352690716000013,0.5512991047045668,1.8087241546789308
771656557,Bix3 12,770631971.0,39.9131349,-76.7598277,35.0,15.0,1.1538461538461535,14.84538,1.0104153615468243,39.9131271,-76.7598264,34.6113,0.8746256803255738,2.8695069170393555,-0.3887,-1.2752625080000002,0.9571090693776612,3.140121719177006
778712599,Bix3 12,776832060.0,39.9125054,-76.7592484,40.0,26.0,2.0,12.45277,2.0878888793417048,39.9125194,-76.7592849,40.29733,3.4815785751532062,11.422502252505645,0.2973300000000023,0.9754921572000076,3.4942516371700867,11.464080541293107
789956809,Bix3 12,789032417.0,39.9128593,-76.7606002,40.0,10.0,0.7692307692307693,11.17242,0.8950612311388222,39.9128605,-76.7606018,40.46157,0.1909112916606779,0.6263494021320185,0.4615700000000018,1.514337318800006,0.4994937298741097,1.6387590087201742
178380756,Bix3 13,176100373.0,39.9123738,-76.759361,20.0,26.0,1.0,19.11552,1.3601513325297978,39.9123578,-76.7593156,19.506,4.262512366037066,13.984621070989046,-0.4939999999999998,-1.6207349599999992,4.291042725331328,14.078224614976032
187525974,Bix3 13,185800520.0,39.9126783,-76.7605412,30.0,26.0,1.0,15.48722,1.6788035554476528,39.9126916,-76.7605073,35.73902,3.248491650033752,10.657781345096732,5.7390199999999965,18.82880637679999,6.594622700408187,21.635901940407194
193028002,Bix3 13,191000432.0,39.9133284,-76.7603642,40.0,26.0,1.0,13.75378,1.890389405676112,39.913315,-76.760357,41.76893,1.612046068867537,5.288865224583371,1.7689299999999974,5.803576301199992,2.3932834919940578,7.851980211873784
567149920,Bix3 13,565270354.0,39.9123738,-76.759361,20.0,26.0,1.0,18.92895,1.373557434511687,39.9123564,-76.7592787,24.6445,7.283151056309058,23.89485331158101,4.644500000000001,15.237861380000002,8.638036209637916,28.34001471802846
576249780,Bix3 13,574670201.0,39.9126783,-76.7605412,30.0,26.0,1.0,15.96083,1.628987966164667,39.9126926,-76.7605249,30.59245,2.112720662955501,6.931498459850928,0.5924499999999995,1.9437336579999984,2.194216398211246,7.198872927907384
582796632,Bix3 13,580769770.0,39.9133736,-76.7602998,40.0,21.0,0.8076923076923077,14.24038,1.4746797487145709,39.9133775,-76.7603178,43.1171,1.5957134566670998,5.235280537171688,3.1171000000000006,10.226706364000002,3.501801514333511,11.488850480285956
599150166,Bix3 13,597969741.0,39.9130527,-76.758948,50.0,26.0,1.0,12.58574,2.065830058462991,39.9130701,-76.7589336,50.72259,2.292325054764524,7.520751732673641,0.7225899999999967,2.3707021755999893,2.403516270966596,7.885552322438047
606550112,Bix3 13,604470272.0,39.9126947,-76.7585564,50.0,15.0,0.5769230769230769,13.10662,1.144459822593468,39.9126945,-76.7585626,50.11158,0.5294091875249521,1.736906838799364,0.1115799999999964,0.3660761271999884,0.5410399100212748,1.7750653783941992
614894567,Bix3 13,612769896.0,39.9121967,-76.7592645,50.0,24.0,0.9230769230769232,11.05349,2.171259936906805,39.9122113,-76.7592665,47.91137,1.6328441186549023,5.35710029824775,-2.088630000000002,-6.852460849200006,2.65114224302015,8.697973516590228
624249745,Bix3 13,623369815.0,39.9125754,-76.7606217,40.0,26.0,1.0,14.23752,1.826160735858492,39.9125731,-76.760619,42.78448,0.3442432698446628,1.1294070894371635,2.784480000000002,9.135433363200006,2.8056785808843743,9.204982515308693
631649709,Bix3 13,630769831.0,39.9132913,-76.7610775,40.0,12.0,0.4615384615384615,13.97024,0.8589687793480999,39.9132871,-76.7610885,39.48994,1.048281014125747,3.439242282384316,-0.5100600000000028,-1.6734252504000091,1.1657848378566722,3.824753527433685
641196836,Bix3 13,639070256.0,39.9133736,-76.7602998,40.0,21.0,0.8076923076923077,15.99437,1.3129619985032233,39.9133837,-76.7603016,38.60263,1.1338331344717432,3.719925100900274,-1.3973700000000022,-4.584547390800007,1.7995056248108878,5.9038900341045535
655894772,Bix3 13,654870268.0,39.9130527,-76.758948,50.0,26.0,1.0,12.84896,2.023510073967076,39.9130583,-76.7589422,49.83315,0.7954901559130475,2.6098759231257627,-0.1668499999999966,-0.5474081539999889,0.8127997974006659,2.6666660873040007
662196759,Bix3 13,660470289.0,39.9126947,-76.7585564,50.0,15.0,0.5769230769230769,12.35885,1.2137051586514926,39.9126943,-76.7585784,50.68267,1.8774168533404272,6.159504309113407,0.6826700000000017,2.239731042800005,1.9976817489546912,6.554074189240509
670150320,Bix3 13,668070217.0,39.9121967,-76.7592645,50.0,24.0,0.9230769230769232,11.30666,2.1226427609921936,39.9122201,-76.7592683,51.28178,2.622809428182412,8.605018084357985,1.2817799999999977,4.2053150951999925,2.9192617671189653,9.577630776034589
678996745,Bix3 13,678169776.0,39.9125754,-76.7606217,40.0,26.0,1.0,15.75063,1.6507276216887834,39.9125751,-76.7606165,39.93762,0.4448823535297047,1.4595878207543962,-0.0623799999999974,-0.2046587991999915,0.4492344297603745,1.473866286535027
685349985,Bix3 13,684569775.0,39.9132913,-76.7610775,40.0,12.0,0.4615384615384615,13.71263,0.8751056507759635,39.9132909,-76.7610796,37.66031,0.1845976994613966,0.6056355163009284,-2.3396899999999974,-7.676148539599992,2.346960929957384,7.700003297441382
695294721,Bix3 13,693270267.0,39.9133736,-76.7602998,40.0,21.0,0.8076923076923077,14.23183,1.4755656862118225,39.9133722,-76.7603047,41.52135,0.4460909473608838,1.463553023739482,1.5213499999999982,4.991305933999994,1.5854030893805289,5.201453871763214
