TimeUS,Log,CMDTimeUS,CMDLat,CMDLng,CMDAlt,AcceptRadius,AcceptRatio,AcceptAirspeed,AirspeedRatio,Lat,Lng,RelHomeAlt,Haversine,HaversineFt,dAlt,dAltFt,Dist,DistFt
567149920,Bix3 14,565270354.0,39.9123738,-76.759361,20.0,26.0,2.0,18.92895,1.373557434511687,39.9123564,-76.7592787,24.6445,7.283151056309058,23.89485331158101,4.644500000000001,15.237861380000002,8.638036209637916,28.34001471802846
576249780,Bix3 14,574670201.0,39.9126783,-76.7605412,30.0,26.0,2.0,15.96083,1.628987966164667,39.9126926,-76.7605249,30.59245,2.1127206629555015,6.9314984598509275,0.5924499999999995,1.9437336579999982,2.194216398211246,7.198872927907384
582796632,Bix3 14,580769770.0,39.9133736,-76.7602998,40.0,21.0,1.6153846153846154,14.24038,1.4746797487145709,39.9133775,-76.7603178,43.1171,1.5957134566670998,5.235280537171688,3.1171000000000006,10.226706364000002,3.501801514333511,11.488850480285956
599150166,Bix3 14,597969741.0,39.9130527,-76.758948,50.0,26.0,2.0,12.58574,2.065830058462991,39.9130701,-76.7589336,50.72259,2.292325054764524,7.520751732673641,0.7225899999999967,2.3707021755999893,2.403516270966596,7.885552322438047
606550112,Bix3 14,604470272.0,39.9126947,-76.7585564,50.0,15.0,1.1538461538461537,13.10662,1.1444598225934681,39.9126945,-76.7585626,50.11158,0.5294091875249521,1.736906838799364,0.11157999999999646,0.3660761271999884,0.5410399100212748,1.7750653783941992
614894567,Bix3 14,612769896.0,39.9121967,-76.7592645,50.0,24.0,1.8461538461538463,11.05349,2.171259936906805,39.9122113,-76.7592665,47.91137,1.6328441186549023,5.35710029824775,-2.088630000000002,-6.852460849200006,2.65114224302015,8.697973516590228
624249745,Bix3 14,623369815.0,39.9125754,-76.7606217,40.0,26.0,2.0,14.23752,1.8261607358584921,39.9125731,-76.760619,42.78448,0.3442432698446628,1.1294070894371635,2.784480000000002,9.135433363200006,2.8056785808843743,9.204982515308691
631649709,Bix3 14,630769831.0,39.9132913,-76.7610775,40.0,12.0,0.9230769230769231,13.97024,0.8589687793480999,39.9132871,-76.7610885,39.48994,1.048281014125747,3.439242282384316,-0.5100600000000028,-1.6734252504000093,1.1657848378566722,3.8247535274336846
641196836,Bix3 14,639070256.0,39.9133736,-76.7602998,40.0,21.0,1.6153846153846154,15.99437,1.3129619985032233,39.9133837,-76.7603016,38.60263,1.1338331344717432,3.719925100900274,-1.3973700000000022,-4.584547390800007,1.7995056248108878,5.9038900341045535
655894772,Bix3 14,654870268.0,39.9130527,-76.758948,50.0,26.0,2.0,12.84896,2.023510073967076,39.9130583,-76.7589422,49.83315,0.7954901559130475,2.6098759231257627,-0.1668499999999966,-0.5474081539999889,0.8127997974006659,2.6666660873040007
662196759,Bix3 14,660470289.0,39.9126947,-76.7585564,50.0,15.0,1.1538461538461537,12.35885,1.2137051586514926,39.9126943,-76.7585784,50.68267,1.8774168533404272,6.159504309113407,0.6826700000000017,2.2397310428000052,1.9976817489546912,6.554074189240509
670150320,Bix3 14,668070217.0,39.9121967,-76.7592645,50.0,24.0,1.8461538461538463,11.30666,2.1226427609921936,39.9122201,-76.7592683,51.28178,2.622809428182412,8.605018084357985,1.2817799999999977,4.2053150951999925,2.9192617671189653,9.577630776034587
678996745,Bix3 14,678169776.0,39.9125754,-76.7606217,40.0,26.0,2.0,15.75063,1.6507276216887834,39.9125751,-76.7606165,39.93762,0.4448823535297047,1.4595878207543962,-0.06237999999999744,-0.20465879919999158,0.4492344297603745,1.473866286535027
685349985,Bix3 14,684569775.0,39.9132913,-76.7610775,40.0,12.0,0.9230769230769231,13.71263,0.8751056507759635,39.9132909,-76.7610796,37.66031,0.1845976994613966,0.6056355163009284,-2.3396899999999974,-7.676148539599992,2.3469609299573837,7.700003297441382
695294721,Bix3 14,693270267.0,39.9133736,-76.7602998,40.0,21.0,1.6153846153846154,14.23183,1.4755656862118223,39.9133722,-76.7603047,41.52135,0.44609094736088384,1.463553023739482,1.5213499999999982,4.991305933999994,1.5854030893805289,5.201453871763214
709494221,Bix3 14,708470362.0,39.9130527,-76.758948,50.0,26.0,2.0,13.00162,1.9997508002848874,39.9130571,-76.7589512,49.72171,0.5603906945514764,1.8385522063122657,-0.27828999999999837,-0.9130249635999946,0.6256860671613882,2.052775876585769
715950074,Bix3 14,714270313.0,39.9126947,-76.7585564,50.0,15.0,1.1538461538461537,11.95348,1.2548646921231306,39.9126904,-76.7585864,50.63212,2.603698928674504,8.54231959315246,0.6321200000000005,2.0738845808000015,2.6793327164763916,8.790461949524405
723949874,Bix3 14,721870298.0,39.9121967,-76.7592645,50.0,24.0,1.8461538461538463,11.09834,2.162485560903703,39.9122303,-76.7592693,46.9705,3.7595740782437166,12.334561018865115,-3.0294999999999987,-9.939304779999995,4.828277902089117,15.840807272290059
733094159,Bix3 14,732270268.0,39.9125754,-76.7606217,40.0,26.0,2.0,14.86334,1.7492703524241522,39.9125836,-76.7606134,39.28569,1.1546654994045424,3.788272757066399,-0.7143099999999976,-2.343536820399992,1.357752257083426,4.454567915129587
739694307,Bix3 14,738769789.0,39.9132913,-76.7610775,40.0,12.0,0.9230769230769231,13.65297,0.8789296394850351,39.9132955,-76.7610618,41.29818,1.4185328308631788,4.653979252809152,1.298180000000002,4.259120871200007,1.9228901956785545,6.308695069590029
748397015,Bix3 14,746070219.0,39.9133736,-76.7602998,40.0,21.0,1.6153846153846154,15.2103,1.3806433798149937,39.9133822,-76.760299,39.95273,0.958978277719321,3.146254292672657,-0.04726999999999748,-0.15508530679999175,0.9601425883885762,3.1500742096887766
763894554,Bix3 14,762769821.0,39.9130527,-76.758948,50.0,26.0,2.0,12.85812,2.0220685450128015,39.9130398,-76.7589564,50.39367,1.603827306322834,5.261900779676207,0.3936700000000002,1.2915682828000006,1.6514351629436617,5.418094539992083
770996768,Bix3 14,769169713.0,39.9126947,-76.7585564,50.0,15.0,1.1538461538461537,13.99031,1.072170666697164,39.9126971,-76.7585846,47.81398,2.4205954605290194,7.941586410722028,-2.186019999999999,-7.171981856799997,3.261589462813138,10.700753173175855
779094225,Bix3 14,776870515.0,39.9121967,-76.7592645,50.0,24.0,1.8461538461538463,11.84016,2.026999635140066,39.9122295,-76.7592708,49.30434,3.687603535597511,12.098437183729738,-0.6956599999999966,-2.2823491543999888,3.7526474216679695,12.31183576690514
789049723,Bix3 14,788070186.0,39.9125754,-76.7606217,40.0,26.0,2.0,12.0501,2.1576584426685255,39.9125933,-76.760613,42.50383,2.1248028203981013,6.971138085274907,2.5038300000000007,8.214665617200001,3.2838927653733956,10.773926740347651
795694320,Bix3 14,794870321.0,39.9132913,-76.7610775,40.0,12.0,0.9230769230769231,14.77839,0.8119964353356489,39.9132952,-76.7610702,38.81447,0.7589619271840969,2.4900326491826728,-1.18553,-3.8895342451999997,1.407659258419806,4.618304801394037
805494287,Bix3 14,803270203.0,39.9133736,-76.7602998,40.0,21.0,1.6153846153846154,16.32118,1.2866716744745172,39.913381,-76.7602951,39.1255,0.9155476974831644,3.003765507810665,-0.8744999999999976,-2.869094579999992,1.266087610067613,4.153830874614227
822049767,Bix3 14,820969748.0,39.9130527,-76.758948,50.0,26.0,2.0,12.81772,2.0284418757782197,39.9130478,-76.7589505,49.40341,0.5852555195424917,1.9201297187357884,-0.5965899999999991,-1.957316335599997,0.8357294127018331,2.741894486368682
829249872,Bix3 14,827470284.0,39.9126947,-76.7585564,50.0,15.0,1.1538461538461537,13.23675,1.1332086803784915,39.9126893,-76.7585952,49.91605,3.3642006572729497,11.037404084407385,-0.08395000000000152,-0.275426518000005,3.365247935129854,11.04084003549143
837249902,Bix3 14,835070319.0,39.9121967,-76.7592645,50.0,24.0,1.8461538461538463,10.92086,2.1976291244462436,39.9122485,-76.759276,50.21585,5.844462189037168,19.174745328280704,0.2158500000000032,0.7081693140000105,5.848446759746141,19.187818067245527
846950093,Bix3 14,846070283.0,39.9125754,-76.7606217,40.0,26.0,2.0,12.75948,2.037700595949051,39.9125931,-76.7606155,40.98302,2.03852507702787,6.6880746137161164,0.9830200000000033,3.2251313368000107,2.2631643356308637,7.425080078911163
853694272,Bix3 14,852870368.0,39.9132913,-76.7610775,40.0,12.0,0.9230769230769231,13.81408,0.8686789131089439,39.9132952,-76.7610561,41.20671,1.8765116435778828,6.156534460716061,1.206710000000001,3.9590224364000033,2.231018819414881,7.319615783489118
862649699,Bix3 14,860470244.0,39.9133736,-76.7602998,40.0,21.0,1.6153846153846154,15.74836,1.3334721837702466,39.9133849,-76.7602983,39.45361,1.2633555053843848,4.144867276285305,-0.5463900000000024,-1.7926181676000077,1.3764480248396729,4.515905737814992
877894389,Bix3 14,876769894.0,39.9130527,-76.758948,50.0,26.0,2.0,14.00745,1.856155117455354,39.9130479,-76.7589531,49.06885,0.6887251179511881,2.259596915978976,-0.9311500000000024,-3.054954166000008,1.158180733131441,3.799805676486957
884750594,Bix3 14,882969745.0,39.9126947,-76.7585564,50.0,15.0,1.1538461538461537,13.22769,1.1339848454265256,39.912697,-76.7585908,49.26505,2.945901481576395,9.665031416815099,-0.7349499999999978,-2.4112533579999926,3.036196146768847,9.961273766165105
892596729,Bix3 14,890470313.0,39.9121967,-76.7592645,50.0,24.0,1.8461538461538463,11.30113,2.123681437166018,39.9122308,-76.7592658,48.10951,3.794439494671957,12.448948871699542,-1.8904899999999998,-6.202395211599999,4.239306962090192,13.908487853503987
902249839,Bix3 14,901270261.0,39.9125754,-76.7606217,40.0,26.0,2.0,13.45761,1.9319923820054228,39.912599,-76.7606086,42.91629,2.852956011823185,9.360092201829978,2.9162899999999965,9.567880883599988,4.079718785590257,13.384904580515938
909449951,Bix3 14,908569850.0,39.9132913,-76.7610775,40.0,12.0,0.9230769230769231,13.96607,0.8592252509116738,39.9133047,-76.761039,40.81469,3.606870381936522,11.83356462387262,0.8146899999999988,2.672867539599996,3.697733596162778,12.13167229163469
918649827,Bix3 14,916470268.0,39.9133736,-76.7602998,40.0,21.0,1.6153846153846154,15.70787,1.3369094600350016,39.9133746,-76.7602958,39.45758,0.3589183261438815,1.1775536011458922,-0.5424199999999999,-1.7795932327999997,0.6504166520330839,2.133912968656223
933196718,Bix3 14,932169698.0,39.9130527,-76.758948,50.0,26.0,2.0,13.41167,1.938610180536801,39.9130444,-76.7589535,48.89244,1.0355801257786126,3.3975726998595035,-1.1075599999999994,-3.633727150399998,1.5162834004590453,4.974683231562055
939494232,Bix3 14,937870210.0,39.9126947,-76.7585564,50.0,15.0,1.1538461538461537,13.03516,1.1507338613411726,39.9126934,-76.7585978,49.80686,3.534923544017597,11.597518560154692,-0.19313999999999965,-0.6336614375999988,3.54019597220972,11.614816553464538
947396733,Bix3 14,945270108.0,39.9121967,-76.7592645,50.0,24.0,1.8461538461538463,9.562639,2.509767439720353,39.9122368,-76.7592703,49.00799,4.487540484124128,14.722902321933805,-0.9920100000000005,-3.2546260884000016,4.595878962369769,15.078343534901231
957196785,Bix3 14,956369784.0,39.9125754,-76.7606217,40.0,26.0,2.0,14.56647,1.7849211236490377,39.9125953,-76.7606043,39.8241,2.665099297354321,8.74376437873195,-0.1758999999999986,-0.5770997559999954,2.6708978031288457,8.762788348417242
963797400,Bix3 14,962969808.0,39.9132913,-76.7610775,40.0,12.0,0.9230769230769231,13.98323,0.8581708231932107,39.9132974,-76.7610566,39.51435,1.907755308019082,6.259039924761325,-0.4856499999999997,-1.593339945999999,1.9686000705514015,6.45866185546786
973150218,Bix3 14,970969747.0,39.9133736,-76.7602998,40.0,21.0,1.6153846153846154,15.71292,1.3364797886070825,39.9133847,-76.7602956,40.28387,1.2855563251686422,4.217704613866288,0.2838700000000003,0.9313320508000009,1.3165246834302438,4.319306842385281
987694558,Bix3 14,986569811.0,39.9130527,-76.758948,50.0,26.0,2.0,12.55078,2.0715843955515116,39.9130477,-76.7589489,49.90069,0.5614070475522299,1.841886697891258,-0.09931000000000267,-0.3258202204000088,0.5701230999892148,1.8704826713686156
994094359,Bix3 14,992469541.0,39.9126947,-76.7585564,50.0,15.0,1.1538461538461537,13.18116,1.1379878553936071,39.9126972,-76.7586054,49.45434,4.189582873392644,13.745351074341523,-0.545659999999998,-1.7902231543999936,4.224967394977737,13.86144202813876
1002094683,Bix3 14,999870637.0,39.9121967,-76.7592645,50.0,24.0,1.8461538461538463,12.33782,1.9452382997968847,39.9122315,-76.7592724,49.07214,3.9289165936960644,12.890146717261796,-0.9278600000000026,-3.0441602024000085,4.036992665316633,13.244727016077421
1012295074,Bix3 14,1011369771.0,39.9125754,-76.7606217,40.0,26.0,2.0,13.19593,1.9703044802450451,39.9126029,-76.7606002,40.16514,3.566541217720626,11.701251088746538,0.16514000000000095,0.5417979176000032,3.5703623733873466,11.713787689104143
1019049722,Bix3 14,1018169751.0,39.9132913,-76.7610775,40.0,12.0,0.9230769230769231,13.62244,0.8808994570723013,39.913293,-76.7610634,39.50757,1.2176755673429664,3.994998708361498,-0.4924299999999988,-1.615584041199996,1.3134767193231915,4.3093069598242995
1027850342,Bix3 14,1025769769.0,39.9133736,-76.7602998,40.0,21.0,1.6153846153846154,15.80404,1.328774161543504,39.913381,-76.7602975,38.79815,0.8461406378203569,2.7760520501865398,-1.2018500000000003,-3.943077554000001,1.469829038177924,4.82227390161566
1041694858,Bix3 14,1040670163.0,39.9130527,-76.758948,50.0,26.0,2.0,12.4103,2.0950339637236812,39.9130401,-76.7589542,50.03537,1.4979465394992724,4.914522924650793,0.035370000000000346,0.11604331080000113,1.4983640652718033,4.915892759906344
1047450079,Bix3 14,1045969966.0,39.9126947,-76.7585564,50.0,15.0,1.1538461538461537,12.30694,1.218824500647602,39.912691,-76.7586095,52.18855,4.5487836943909095,14.923831495905471,2.1885499999999993,7.180282381999998,5.047889083652355,16.56131642120999
1054895024,Bix3 14,1052969587.0,39.9121967,-76.7592645,50.0,24.0,1.8461538461538463,12.3426,1.9444849545476643,39.912242,-76.7592751,50.47793,5.119064828629858,16.794832652361983,0.47793000000000063,1.568011861200002,5.14132685253673,16.867870790876605
1064894750,Bix3 14,1063969765.0,39.9125754,-76.7606217,40.0,26.0,2.0,12.76436,2.0369215534503886,39.9125962,-76.7606063,38.29887,2.66053651915809,8.728794633514628,-1.7011299999999991,-5.5811353491999975,3.1578945274777372,10.36054668153006
1110596341,Bix3 14,1109169660.0,39.912777,-76.7610186,40.0,26.0,2.0,13.31944,1.952034019448265,39.9127466,-76.761062,40.62057,5.014201391218577,16.450792492365558,0.6205700000000007,2.0359908788000025,5.052457096957709,16.57630334198273
1117750584,Bix3 14,1115969796.0,39.9134559,-76.7610615,40.0,20.0,1.5384615384615385,13.55507,1.4754626866552514,39.9134498,-76.7610473,39.8467,1.3884909874145142,4.5554167711490345,-0.15330000000000155,-0.5029527720000051,1.3969280984114154,4.583097582392108
1124993999,Bix3 14,1122769774.0,39.9133736,-76.7602998,40.0,21.0,1.6153846153846154,12.721,1.6508136152818174,39.9134002,-76.7602909,40.99879,3.054495352487049,10.02131053225361,0.9987899999999996,3.276870183599999,3.2136464215070366,10.543459725537145
1137095707,Bix3 14,1137069654.0,39.9130362,-76.7590123,60.0,26.0,2.0,12.38291,2.0996680101850047,39.9130322,-76.7590151,60.24088,0.5049776002603543,1.6567507100381809,0.2408799999999971,0.7902887391999904,0.5594868641574213,1.8355868834022342
1141850581,Bix3 14,1139069646.0,39.9129251,-76.7584974,60.0,28.0,2.1538461538461537,12.80363,2.186879814552592,39.9128769,-76.758588,63.17752,9.406611470644936,30.86158717735073,3.1775200000000012,10.424934716800005,9.928795128819454,32.57478821043602
1149194166,Bix3 14,1147769779.0,39.912275,-76.7586261,60.0,15.0,1.1538461538461537,13.10191,1.1448712439636664,39.9122783,-76.7586296,62.28167,0.4731639812823844,1.552375316350498,2.2816699999999983,7.485794202799994,2.330215042025733,7.645062718479706
1154294984,Bix3 14,1152369735.0,39.9121967,-76.7592645,60.0,24.0,1.8461538461538463,12.47742,1.9234745644532283,39.9121775,-76.7592679,59.07121,2.1551553493817033,7.070719876465468,-0.9287899999999993,-3.047211383599998,2.346773411317882,7.699388078788161
1164695080,Bix3 14,1164569658.0,39.9126001,-76.7605841,40.0,26.0,2.0,12.76793,2.036352016340942,39.9126107,-76.7605849,43.43359,1.180973045932277,3.8745836080164513,3.4335900000000024,11.265059415600009,3.631010551254096,11.912764656976488
1167994106,Bix3 14,1166769868.0,39.912777,-76.7610186,40.0,26.0,2.0,14.43059,1.8017281344699003,39.9127896,-76.7609918,37.91466,2.6817244420011623,8.798308818295093,-2.085340000000002,-6.841666885600008,3.397100071888736,11.14534179985544
1174149727,Bix3 14,1172569727.0,39.9134559,-76.7610615,40.0,20.0,1.5384615384615385,14.44042,1.3850012672761596,39.9134492,-76.761053,36.56705,1.039805636361091,3.411435923998922,-3.432949999999998,-11.262959677999994,3.5869682830920433,11.7682690218997
1181194203,Bix3 14,1179069797.0,39.9133736,-76.7602998,40.0,21.0,1.6153846153846154,12.14083,1.7297005229461249,39.9134038,-76.7602901,40.92075,3.459468824622324,11.349963698573905,0.9207499999999982,3.020833429999994,3.579902947152864,11.745088785137002
1193049791,Bix3 14,1192969705.0,39.9130362,-76.7590123,60.0,26.0,2.0,14.22495,1.8277744385744765,39.9130394,-76.7590066,57.40873,0.60262166457011,1.9771052619881997,-2.5912700000000015,-8.501542266800005,2.6604197194257257,8.728411432280698
1197895161,Bix3 14,1203969687.0,39.9129251,-76.7584974,60.0,28.0,2.1538461538461537,11.73697,2.3856242283996636,39.9128781,-76.7585995,60.59669,10.158745005167463,33.32921696275362,0.5966900000000024,1.9576444196000078,10.176253683753902,33.386660135807155
1210350024,Bix3 14,1208369751.0,39.9121967,-76.7592645,60.0,24.0,1.8461538461538463,12.08189,1.986444173883391,39.9121821,-76.7592787,59.49722,2.0260038188346923,6.646994368985612,-0.5027800000000013,-1.6495407352000044,2.0874575929423713,6.8486143692290495
1220350191,Bix3 14,1220169839.0,39.9126001,-76.7605841,40.0,26.0,2.0,13.23353,1.9647063179665591,39.9126098,-76.7605986,47.64894,1.6414291629075246,5.385266454833523,7.648940000000003,25.09494830960001,7.823079497259589,25.66627213778915
1337993949,Bix3 14,1335069710.0,39.9128181,-76.7582399,60.0,28.0,2.1538461538461537,13.6822,2.0464545175483475,39.9127777,-76.7583531,57.85343,10.651666665993663,34.94641406445865,-2.146569999999997,-7.04255271879999,10.865807173346145,35.64897480660097
1345594027,Bix3 14,1344069817.0,39.9122051,-76.7584866,60.0,15.0,1.1538461538461537,12.83503,1.168676660670057,39.9122008,-76.7584787,58.53052,0.8264337810162746,2.7113970061094346,-1.4694799999999972,-4.821128763199991,1.685931275231837,5.5312707650316195
1351449723,Bix3 14,1349469642.0,39.9121967,-76.7592645,60.0,24.0,1.8461538461538463,12.2454,1.9599196432946249,39.9121709,-76.7592752,59.5938,3.011335380449369,9.879709569593508,-0.40619999999999834,-1.3326772079999945,3.0386081046337887,9.96918701400672
1362049754,Bix3 14,1361569638.0,39.9126001,-76.7605841,40.0,26.0,2.0,12.7615,2.0373780511695334,39.9126023,-76.7606059,50.33422,1.8758579160149698,6.154389685178553,10.334220000000002,33.904922344800006,10.503092207986944,34.458965039651886
1366993958,Bix3 14,1365769754.0,39.9129457,-76.7611259,40.0,26.0,2.0,14.11646,1.8418215331605798,39.9129514,-76.761128,43.6549,0.6588176810562647,2.1614754007166357,3.654899999999998,11.991142115999994,3.71380327250547,12.184394328566846
1372094806,Bix3 14,1370469823.0,39.9134724,-76.7611259,40.0,20.0,1.5384615384615385,14.56795,1.372876760285421,39.9134656,-76.7611184,38.12066,0.9906795752123433,3.2502611775396644,-1.8793399999999991,-6.165813845599997,2.1244681349323424,6.970040035811427
1380750631,Bix3 14,1378269728.0,39.9133736,-76.7602998,40.0,21.0,1.6153846153846154,13.31477,1.5771958509234483,39.9133851,-76.760295,37.81024,1.3430539223085636,4.406345030466828,-2.1897599999999997,-7.184252198399999,2.5688212658393375,8.427891561816331
1392895621,Bix3 14,1392769762.0,39.9130445,-76.7591089,60.0,26.0,2.0,13.93874,1.8653048984341485,39.913048,-76.759092,53.67957,1.4934164246184074,4.899660342545055,-6.320430000000002,-20.736319561200006,6.494469031585265,21.3073137775862
1401850283,Bix3 14,1398869794.0,39.9128181,-76.7582399,60.0,28.0,2.1538461538461537,11.6639,2.4005692778573207,39.9127836,-76.7583658,60.3106,11.405792478304214,37.420580194519594,0.3106000000000009,1.019028904000003,11.410020789557791,37.43445260721278
1410794693,Bix3 14,1408969847.0,39.9122051,-76.7584866,60.0,15.0,1.1538461538461537,12.32962,1.216582506192405,39.9122067,-76.7584947,63.39288,0.7135887929196155,2.3411706553623914,3.392879999999998,11.131496419199994,3.4671088329875746,11.375029343618953
1416949967,Bix3 14,1414869794.0,39.9121967,-76.7592645,60.0,24.0,1.8461538461538463,11.93709,2.0105402572988895,39.9121978,-76.7592627,58.96502,0.19634516385036532,0.6441770673668326,-1.0349799999999973,-3.3956037831999915,1.0534396156246553,3.456166828525994
1427149878,Bix3 14,1426669743.0,39.9126001,-76.7605841,40.0,26.0,2.0,12.21279,2.1289156695562603,39.9126081,-76.760591,45.48667,1.0669047038163673,3.5003436284688902,5.486669999999997,18.00088640279999,5.589439447379804,18.338056516541556
1431750810,Bix3 14,1430769775.0,39.9129457,-76.7611259,40.0,26.0,2.0,14.21632,1.8288839868545448,39.9129455,-76.7611221,40.3598,0.3249511557081905,1.0661127496936598,0.3597999999999999,1.1804462319999998,0.4848188255380443,1.590612995578237
1436895554,Bix3 14,1435169798.0,39.9134724,-76.7611259,40.0,20.0,1.5384615384615385,14.47468,1.3817231192675763,39.9134606,-76.7611161,39.47264,1.5561411719206848,5.10545020248426,-0.5273600000000016,-1.7301837824000053,1.6430714885684932,5.390654662555055
1524194014,Bix3 14,1520969645.0,39.9128181,-76.7582399,70.0,28.0,2.1538461538461537,11.82321,2.3682231813526107,39.9127725,-76.7583578,72.64153,11.264809889754583,36.958038878702425,2.641530000000003,8.66643728520001,11.570376942572471,37.96055548826946
1531950163,Bix3 14,1530369772.0,39.9122051,-76.7584866,70.0,15.0,1.1538461538461537,12.55552,1.1946936486899786,39.9122099,-76.7584931,68.7533,0.7697719173681064,2.525498497377978,-1.2467000000000041,-4.0902232280000135,1.4651995409392473,4.8070852618951205
1537794541,Bix3 14,1535869801.0,39.9121967,-76.7592645,70.0,24.0,1.8461538461538463,11.2993,2.124025382103316,39.9121814,-76.7592702,68.07697,1.7698796786343047,5.806692044850572,-1.9230299999999971,-6.309153745199991,2.6135260583630417,8.574560833319802
1547550137,Bix3 14,1547069631.0,39.9126001,-76.7605841,40.0,26.0,2.0,15.18659,1.7120367376744878,39.9126237,-76.7606054,53.3681,3.192559330647829,10.474276354362622,13.368099999999998,43.85859720399999,13.74403625903637,45.09198392009689
1551449841,Bix3 14,1550469638.0,39.9129457,-76.7611259,40.0,26.0,2.0,15.0229,1.7306911448521922,39.9129551,-76.7611128,44.25154,1.5304097205514746,5.0210294275741,4.2515399999999985,13.948622493599995,4.518600035891474,14.824803741754183
1556150076,Bix3 14,1554569757.0,39.9134724,-76.7611259,40.0,20.0,1.5384615384615385,14.22466,1.406009001269626,39.9134689,-76.7611244,37.06198,0.40978567750118683,1.3444412421729939,-2.9380200000000016,-9.639173536800005,2.966460150058503,9.732481118717939
1564094384,Bix3 14,1561869819.0,39.9133736,-76.7602998,40.0,21.0,1.6153846153846154,13.61957,1.5418988998918468,39.9134013,-76.7602875,39.00318,3.2547644152265627,10.678361284051915,-0.9968199999999996,-3.2704069287999986,3.4039890585936243,11.167943462996307
1576350602,Bix3 14,1576169810.0,39.9130445,-76.7591089,70.0,26.0,2.0,14.7948,1.75737421256117,39.9130398,-76.7590861,61.01518,2.0141533674318426,6.608114934005086,-8.98482,-29.4777568488,9.207812129921908,30.209358348332994
1585794591,Bix3 14,1582569718.0,39.9128181,-76.7582399,70.0,28.0,2.1538461538461537,12.30884,2.27478787603056,39.9127683,-76.7583589,67.52697,11.565013462082353,37.94295876693827,-2.4730299999999943,-8.113615745199981,11.826470891988278,38.80075876127082
1594794917,Bix3 14,1593069628.0,39.9122051,-76.7584866,70.0,15.0,1.1538461538461537,12.96472,1.15698603594987,39.9121977,-76.7584779,67.3217,1.1083129221803176,3.6361973676060733,-2.678299999999993,-8.787073771999976,2.8985597153537888,9.509710656521325
1600834709,Bix3 14,1598869742.0,39.9121967,-76.7592645,70.0,24.0,1.8461538461538463,12.64239,1.8983752281016484,39.912182,-76.7592662,71.32684,1.6414471552766017,5.3853254849176855,1.3268400000000042,4.353149745600014,2.1106523041859973,6.924712505665587
1610594045,Bix3 14,1610069655.0,39.9126001,-76.7605841,40.0,26.0,2.0,14.88316,1.7469408378328257,39.9126184,-76.7606138,59.55286,3.2501058161435017,10.663077165836246,19.552860000000003,64.1498052024,19.821138261858977,65.02998325503741
1614394229,Bix3 14,1613369751.0,39.9129457,-76.7611259,40.0,26.0,2.0,15.46719,1.6809776048525944,39.9129543,-76.7611377,49.95837,1.388671755047923,4.556009840831428,9.958370000000002,32.671818630800004,10.054727360807348,32.98795171443118
1618895269,Bix3 14,1617269639.0,39.9134724,-76.7611259,40.0,20.0,1.5384615384615385,12.63403,1.583026160298812,39.9134642,-76.7611056,44.41655,1.9573216102839732,6.4216590318840705,4.416550000000001,14.489993902000002,4.830840691700012,15.849215374957067
178380756,Bix3 13,176100373.0,39.9123738,-76.759361,20.0,26.0,2.0,19.11552,1.3601513325297978,39.9123578,-76.7593156,19.506,4.262512366037066,13.984621070989046,-0.4939999999999998,-1.6207349599999992,4.291042725331328,14.078224614976032
187525974,Bix3 13,185800520.0,39.9126783,-76.7605412,30.0,26.0,2.0,15.48722,1.6788035554476528,39.9126916,-76.7605073,35.73902,3.248491650033752,10.657781345096732,5.7390199999999965,18.82880637679999,6.594622700408187,21.635901940407194
267757132,Bix3 12,266432024.0,39.9133118,-76.7603695,35.0,20.0,1.5384615384615383,15.59239,1.2826769982023285,39.9132624,-76.7603434,40.92165,5.928609736110628,19.4508199666212,5.92165,19.427986186,8.379400463374795,27.49147221625856
279956579,Bix3 12,279332502.0,39.9130157,-76.7591304,40.0,10.0,0.7692307692307693,11.60441,0.8617413552261597,39.9130504,-76.7591206,40.3456,3.949071059603995,12.956270295191173,0.3455999999999974,1.1338583039999917,3.9641646779368056,13.00579004196219
287859161,Bix3 12,286032036.0,39.9122915,-76.7594146,40.0,25.0,1.9230769230769231,13.5232,1.848674869853289,39.9123046,-76.7594259,40.80842,1.7471176700289273,5.732013536537706,0.8084199999999981,2.6522966727999937,1.9250878030176453,6.315905067652412
297212093,Bix3 12,296832193.0,39.9126041,-76.7606163,40.0,5.0,0.3846153846153846,11.26515,0.4438467308469039,39.9125847,-76.7606272,39.57649,2.3496390854074884,7.708789896968304,-0.4235100000000003,-1.389468548400001,2.3875017385908937,7.833011204038548
307356514,Bix3 12,306132844.0,39.9131349,-76.7598277,35.0,15.0,1.1538461538461535,14.70649,1.0199578553414173,39.9131372,-76.7598332,36.13071,0.5344258592401647,1.753365736029502,1.1307100000000003,3.7096785964000016,1.2506462741817086,4.103170322186317
314157140,Bix3 12,312332807.0,39.9125054,-76.7592484,40.0,26.0,2.0,13.17119,1.9740053859977724,39.9125092,-76.7592601,39.08348,1.0839642179239346,3.5563131647335617,-0.9165199999999984,-3.006955476799995,1.4195024959962008,4.657160568964176
326012569,Bix3 12,325232081.0,39.9128593,-76.7606002,40.0,10.0,0.7692307692307693,12.60525,0.7933202435493147,39.9128429,-76.7606129,40.30201,2.1216272299905423,6.960719481242171,0.3020100000000028,0.9908464884000092,2.1430147323659123,7.03088845453538
331757130,Bix3 12,330432051.0,39.9133118,-76.7603695,35.0,20.0,1.5384615384615383,16.02108,1.2483552919029175,39.9133726,-76.7604159,35.2599,7.835937067919415,25.70845576991273,0.2599000000000018,0.8526903160000059,7.84024602562914,25.722592770725107
339157291,Bix3 12,338532824.0,39.9130157,-76.7591304,40.0,10.0,0.7692307692307693,14.54778,0.6873901035072018,39.9130275,-76.759125,39.38683,1.3909759028956676,4.563569381256222,-0.6131699999999967,-2.011712662799989,1.520128748276413,4.987299202495187
346512550,Bix3 12,344932898.0,39.9122915,-76.7594146,40.0,25.0,1.9230769230769231,15.98347,1.564115927267358,39.9122143,-76.7593853,40.92258,8.943121578430418,29.34095099937765,0.9225800000000036,3.026837367200012,8.990582707644025,29.496663370546823
354557148,Bix3 12,354332450.0,39.9126041,-76.7606163,40.0,5.0,0.3846153846153846,16.56866,0.3017745550937734,39.9125865,-76.760625,39.65779,2.093569324258626,6.868665981800671,-0.3422100000000014,-1.1227362564000047,2.1213533886594007,6.959821051649308
364557184,Bix3 12,363532968.0,39.9131349,-76.7598277,35.0,15.0,1.1538461538461535,14.26192,1.0517517977944064,39.9131577,-76.7598327,33.32043,2.571585545284882,8.436960720392452,-1.6795699999999982,-5.510400438799994,3.071482964565836,10.077044169466175
370712561,Bix3 12,369032089.0,39.9125054,-76.7592484,40.0,26.0,2.0,15.17546,1.7132923812523642,39.9125006,-76.7592396,40.05234,0.9212340792293386,3.022421616498783,0.0523400000000009,0.171719165600003,0.9227197322771024,3.0272958064440085
382758013,Bix3 12,381932619.0,39.9128593,-76.7606002,40.0,10.0,0.7692307692307693,12.4302,0.8044922849189877,39.9128407,-76.7606067,40.47861,2.1418410309241005,7.027037727897026,0.4786100000000033,1.5702428324000108,2.194664105016988,7.200341782303934
388912476,Bix3 12,387431994.0,39.9133118,-76.7603695,35.0,20.0,1.5384615384615383,15.23317,1.3129243617710562,39.9133436,-76.7603871,35.04605,3.842505480008697,12.606645679031734,0.046050000000001,0.1510826820000033,3.842781410176341,12.607550961762946
397356471,Bix3 12,396631908.0,39.9130157,-76.7591304,40.0,10.0,0.7692307692307693,12.2219,0.8182033889984373,39.9130219,-76.759132,39.45326,0.7029830062353339,2.3063747661771328,-0.5467399999999998,-1.7937664615999993,0.8905670859939004,2.9218081184122284
404512509,Bix3 12,402632049.0,39.9122915,-76.7594146,40.0,25.0,1.9230769230769231,12.56102,1.9902842285101048,39.9123019,-76.7594242,40.50655,1.4173422201923511,4.650073049695873,0.5065499999999972,1.6619095019999908,1.505141811139329,4.938129459658358
413858899,Bix3 12,413531996.0,39.9126041,-76.7606163,40.0,5.0,0.3846153846153846,12.08581,0.4137083075110398,39.9125863,-76.7606207,40.72467,2.015100855970335,6.611223492301714,0.7246700000000033,2.3775263228000107,2.1414429874811938,7.0257318110478
423512487,Bix3 12,422432111.0,39.9131349,-76.7598277,35.0,15.0,1.1538461538461535,14.0439,1.0680793796594965,39.913141,-76.759832,33.13525,0.7713045680835104,2.5305268791511044,-1.8647500000000008,-6.117946390000003,2.0179700937443283,6.620637002360142
430557787,Bix3 12,428631992.0,39.9125054,-76.7592484,40.0,26.0,2.0,12.38203,2.099817235138341,39.9125167,-76.7592831,40.04538,3.216132734439644,10.551616920458962,0.0453800000000015,0.148884519200005,3.216452876995748,10.55266725696273
441812191,Bix3 12,440932398.0,39.9128593,-76.7606002,40.0,10.0,0.7692307692307693,11.31792,0.8835545753990132,39.9128474,-76.7606114,40.52618,1.6324490584130404,5.355804168803839,0.5261799999999965,1.7263123911999887,1.7151546054841875,5.627147835856742
447659529,Bix3 12,446132070.0,39.9133118,-76.7603695,35.0,20.0,1.5384615384615383,14.92526,1.3400101572769922,39.9133506,-76.7603907,35.06942,4.679248157091303,15.35186452371143,0.0694200000000009,0.227755912800003,4.679763076486069,15.353553891858557
455912500,Bix3 12,455231960.0,39.9130157,-76.7591304,40.0,10.0,0.7692307692307693,12.11215,0.8256172520980999,39.9130182,-76.759129,40.23047,0.3026318305858043,0.99288661505913,0.2304699999999968,0.7561351947999897,0.3803977468173458,1.248024143668221
463656793,Bix3 12,461732958.0,39.9122915,-76.7594146,40.0,25.0,1.9230769230769231,12.89439,1.938827660711364,39.9123359,-76.7594433,39.82372,5.512117905878498,18.08437691032241,-0.1762799999999984,-0.5783464751999948,5.514935942212418,18.09362243664819
472757801,Bix3 12,472332399.0,39.9126041,-76.7606163,40.0,5.0,0.3846153846153846,11.74634,0.4256645048585346,39.9125917,-76.7606226,41.32086,1.4802327353165488,4.856406767335946,1.3208600000000033,4.33353032240001,1.983875018821176,6.508776516749266
482356931,Bix3 12,481332532.0,39.9131349,-76.7598277,35.0,15.0,1.1538461538461535,14.91368,1.0057879745307663,39.9131377,-76.759834,33.81165,0.6211798577677835,2.037991724558855,-1.1883499999999998,-3.898786214,1.340910190205296,4.399311788433144
489357142,Bix3 12,487432253.0,39.9125054,-76.7592484,40.0,26.0,2.0,13.08933,1.986350714666068,39.9125273,-76.7593047,40.55327,5.385497910901578,17.668956966002334,0.5532699999999977,1.8151903467999924,5.413842945747988,17.76195249012783
500312043,Bix3 12,499532203.0,39.9128593,-76.7606002,40.0,10.0,0.7692307692307693,10.68145,0.9362024818727794,39.9128479,-76.7606059,39.58752,1.3580302253763084,4.455479884623608,-0.4124800000000022,-1.3532808832000072,1.4192906127483649,4.656465413929346
506012559,Bix3 12,504532314.0,39.9133118,-76.7603695,35.0,20.0,1.5384615384615383,13.5188,1.4794212504068407,39.9133347,-76.7603865,34.90408,2.931046493420275,9.616294577472976,-0.0959199999999995,-0.3146981727999985,2.932615589024803,9.621442529096134
514357074,Bix3 12,513632047.0,39.9130157,-76.7591304,40.0,10.0,0.7692307692307693,12.86969,0.7770194930880231,39.9130261,-76.759129,40.26747,1.162903750610028,3.815301141151404,0.267470000000003,0.8775262748000098,1.1932666651184352,3.914917005587167
522112312,Bix3 12,520332310.0,39.9122915,-76.7594146,40.0,25.0,1.9230769230769231,13.60418,1.837670480690493,39.912341,-76.7594393,39.59221,5.895189998961924,19.34117515619424,-0.4077899999999985,-1.3378937435999951,5.909277266126603,19.387393225798803
531112328,Bix3 12,530732435.0,39.9126041,-76.7606163,40.0,5.0,0.3846153846153846,11.8172,0.4231120739261416,39.9125962,-76.7606194,40.19492,0.9176261711763104,3.0105846474420868,0.1949200000000033,0.6395013328000109,0.938099992766068,3.0777559802666263
540856459,Bix3 12,539732013.0,39.9131349,-76.7598277,35.0,15.0,1.1538461538461535,14.59483,1.027761200370268,39.9131351,-76.7598251,34.42858,0.2229254822896153,0.7313828393150615,-0.5714200000000034,-1.874737592800011,0.6133649705143435,2.0123523298622787
547812310,Bix3 12,545932003.0,39.9125054,-76.7592484,40.0,26.0,2.0,12.88836,2.0173241591637727,39.9125171,-76.7592718,40.47515,2.3830346515426166,7.818355406167078,0.4751499999999993,1.5588911259999976,2.429942730385397,7.972253307557626
558856287,Bix3 12,558032059.0,39.9128593,-76.7606002,40.0,10.0,0.7692307692307693,12.6068,0.7932227052067139,39.9128476,-76.7606079,39.95445,1.4577509041579038,4.7826474763974165,-0.0455499999999986,-0.1494422619999955,1.458462375611104,4.784981700399935
564512825,Bix3 12,563032027.0,39.9133118,-76.7603695,35.0,20.0,1.5384615384615383,13.60848,1.4696718516689593,39.9133306,-76.7603837,36.01798,2.416627575426148,7.928568414561121,1.0179800000000014,3.3398295032000047,2.622283760143067,8.60329345162778
572712523,Bix3 12,572032208.0,39.9130157,-76.7591304,40.0,10.0,0.7692307692307693,11.68186,0.856028064024051,39.9130117,-76.7591282,39.47677,0.4828743178316945,1.5842333769149368,-0.5232299999999981,-1.7166339131999937,0.7119952525975313,2.3359425045320843
580356987,Bix3 12,578532155.0,39.9122915,-76.7594146,40.0,25.0,1.9230769230769231,12.70353,1.9679569379534665,39.9123379,-76.7594437,40.01252,5.726984247745811,18.78931899937437,0.012520000000002,0.0410761168000068,5.7269979329775085,18.78936389842993
589557367,Bix3 12,589132324.0,39.9126041,-76.7606163,40.0,5.0,0.3846153846153846,12.31349,0.406058720963756,39.9126015,-76.7606148,40.18517,0.3162377002799813,1.037525296586574,0.1851699999999994,0.607513142799998,0.3664617469509895,1.2023023578666845
598912528,Bix3 12,597832289.0,39.9131349,-76.7598277,35.0,15.0,1.1538461538461535,14.46323,1.037112733462719,39.9131402,-76.7598294,34.66817,0.6070781790656147,1.9917263730056312,-0.3318299999999965,-1.0886811371999885,0.6918490184987041,2.2698459338512884
605612127,Bix3 12,603732558.0,39.9125054,-76.7592484,40.0,26.0,2.0,13.59235,1.9128406787641576,39.912532,-76.7593097,40.40431,6.008602781345307,19.71326434914894,0.4043100000000024,1.326476420400008,6.022190129852309,19.75784226562465
616712552,Bix3 12,615832091.0,39.9128593,-76.7606002,40.0,10.0,0.7692307692307693,11.83062,0.845264238053458,39.9128551,-76.7606059,39.76025,0.6743157519196101,2.2123220915279336,-0.2397500000000008,-0.7865813900000026,0.7156687751934617,2.347994744405717
622157408,Bix3 12,620732306.0,39.9133118,-76.7603695,35.0,20.0,1.5384615384615383,14.91885,1.3405859030689362,39.9133385,-76.760384,34.08221,3.2170821428941605,10.554731777692878,-0.9177899999999966,-3.0111221435999886,3.3454380876394167,10.975847095450904
630312017,Bix3 12,629632089.0,39.9130157,-76.7591304,40.0,10.0,0.7692307692307693,12.28996,0.8136722983638677,39.9130088,-76.7591369,40.64409,0.9468391640941518,3.106427803126657,0.6440899999999985,2.113156235599995,1.1451446767821567,3.757036461373971
638112367,Bix3 12,636232130.0,39.9122915,-76.7594146,40.0,25.0,1.9230769230769231,12.49746,2.000406482597264,39.9123337,-76.759439,40.12321,5.134645368654436,16.84594991129622,0.1232100000000002,0.4042322964000008,5.136123418098951,16.850799155035762
647512780,Bix3 12,647132022.0,39.9126041,-76.7606163,40.0,5.0,0.3846153846153846,13.37818,0.3737429157030328,39.9125995,-76.7606193,38.68237,0.5720855661721952,1.8769212089203848,-1.3176300000000012,-4.322933209200004,1.4364646573872133,4.712810706542265
656712724,Bix3 12,655632076.0,39.9131349,-76.7598277,35.0,15.0,1.1538461538461535,14.93893,1.0040879768497477,39.9131324,-76.7598249,34.15988,0.3665815644709837,1.2026954599789823,-0.8401199999999989,-2.7562993007999963,0.9166153270647356,3.007268229647067
663712545,Bix3 12,661832132.0,39.9125054,-76.7592484,40.0,26.0,2.0,12.54198,2.0730379094847864,39.9125248,-76.7593027,40.81179,5.110408553365269,16.766432798222908,0.811790000000002,2.6633531036000067,5.174483412516548,16.976652159120793
674812280,Bix3 12,673932169.0,39.9128593,-76.7606002,40.0,10.0,0.7692307692307693,12.38692,0.8073031875559058,39.9128591,-76.7605983,39.87818,0.1636139317828051,0.5367911319502984,-0.1218199999999996,-0.3996719287999987,0.2039843892885637,0.6692401437534914
680356968,Bix3 12,678932033.0,39.9133118,-76.7603695,35.0,20.0,1.5384615384615383,14.74812,1.3561050493215403,39.9133342,-76.7603808,34.6749,2.67147464837058,8.764680885360132,-0.325099999999999,-1.0666010839999969,2.691183161155464,8.829341362445291
688312033,Bix3 12,687532209.0,39.9130157,-76.7591304,40.0,10.0,0.7692307692307693,11.64249,0.8589227905714327,39.9130113,-76.7591281,41.42165,0.5272669090349273,1.729878365838151,1.4216499999999996,4.664206185999999,1.5162780470161947,4.974665667772612
695612317,Bix3 12,694032023.0,39.9122915,-76.7594146,40.0,25.0,1.9230769230769231,15.3777,1.6257307659793077,39.9123323,-76.759438,39.35368,4.957734344586904,16.265533147094498,-0.6463200000000029,-2.1204725088000096,4.999685927525502,16.40316957846277
704112171,Bix3 12,703731996.0,39.9126041,-76.7606163,40.0,5.0,0.3846153846153846,12.29754,0.4065853821170738,39.9126014,-76.7606207,39.30661,0.4807241780406103,1.577179112282756,-0.6933900000000008,-2.274901647600003,0.8437330309125165,2.768153077139021
713256161,Bix3 12,712232099.0,39.9131349,-76.7598277,35.0,15.0,1.1538461538461535,13.82085,1.085316749693398,39.9131475,-76.759836,35.61213,1.5701800859009003,5.151509633027111,0.6121300000000005,2.008300589200001,1.685279988328278,5.529133996906947
720012565,Bix3 12,718132016.0,39.9125054,-76.7592484,40.0,26.0,2.0,12.53394,2.0743676768837256,39.9125155,-76.7592911,40.69758,3.812162750012446,12.507096036750834,0.6975800000000021,2.288648367200006,3.875461609793401,12.714769467874582
731056599,Bix3 12,730232019.0,39.9128593,-76.7606002,40.0,10.0,0.7692307692307693,11.29416,0.8854133463666178,39.9128572,-76.7605978,39.47389,0.3106130148581912,1.0190716036673482,-0.5261100000000027,-1.726082732400009,0.6109600454197458,2.004462155414919
736557883,Bix3 12,735132211.0,39.9133118,-76.7603695,35.0,20.0,1.5384615384615383,15.24911,1.311551952868069,39.9133367,-76.760391,35.36232,3.321848615809666,10.898453812692985,0.3623199999999968,1.1887139487999898,3.34154964182138,10.963089726873257
745012516,Bix3 12,744332036.0,39.9130157,-76.7591304,40.0,10.0,0.7692307692307693,12.38363,0.8075176664677481,39.913007,-76.7591364,39.897,1.094715175514453,3.591585336434838,-0.1030000000000015,-0.337926520000005,1.099550051385402,3.607447790587282
752612325,Bix3 12,750632072.0,39.9122915,-76.7594146,40.0,25.0,1.9230769230769231,12.10895,2.064588589431784,39.9123331,-76.7594358,41.15184,4.967946007079518,16.299035977866765,1.15184,3.7790027456,5.09972772948295,16.731390723996842
761812063,Bix3 12,761432121.0,39.9126041,-76.7606163,40.0,5.0,0.3846153846153846,11.74297,0.4257866621476509,39.9126074,-76.7606156,40.40699,0.3718734230192533,1.220057201178487,0.4069900000000004,1.3352690716000013,0.5512991047045668,1.8087241546789308
771656557,Bix3 12,770631971.0,39.9131349,-76.7598277,35.0,15.0,1.1538461538461535,14.84538,1.0104153615468243,39.9131271,-76.7598264,34.6113,0.8746256803255738,2.8695069170393555,-0.3887,-1.2752625080000002,0.9571090693776612,3.140121719177006
778712599,Bix3 12,776832060.0,39.9125054,-76.7592484,40.0,26.0,2.0,12.45277,2.0878888793417048,39.9125194,-76.7592849,40.29733,3.4815785751532062,11.422502252505645,0.2973300000000023,0.9754921572000076,3.4942516371700867,11.464080541293107
789956809,Bix3 12,789032417.0,39.9128593,-76.7606002,40.0,10.0,0.7692307692307693,11.17242,0.8950612311388222,39.9128605,-76.7606018,40.46157,0.1909112916606779,0.6263494021320185,0.4615700000000018,1.514337318800006,0.4994937298741097,1.6387590087201742
330361496,Bix3 11,328881478.0,39.9131884,-76.7604017,35.0,20.0,1.5384615384615383,15.32768,1.3048289108332114,39.9131766,-76.7603722,37.27418,2.838390631306924,9.312305518817007,2.274180000000001,7.461220711200004,3.637080704121222,11.93267985730907
339761949,Bix3 11,338981395.0,39.9130157,-76.7593181,40.0,10.0,0.7692307692307693,11.36576,0.879835576327496,39.9130274,-76.7593157,38.78791,1.3173571923426055,4.322038170925315,-1.2120900000000034,-3.976673355600011,1.7901374640839185,5.873154597665082
346361508,Bix3 11,344481430.0,39.9123985,-76.7594844,40.0,25.0,1.9230769230769231,14.22211,1.7578263703487034,39.9124395,-76.7595166,35.45963,5.323784810608339,17.466486158036265,-4.540370000000003,-14.89622751080001,6.996973949255786,22.955952011676352
355207008,Bix3 11,354681570.0,39.9126783,-76.7605895,40.0,5.0,0.3846153846153846,11.12695,0.4493594381209585,39.9126764,-76.7605902,42.07772,0.2196059582403745,0.7204920120333504,2.07772,6.816666884799997,2.0892934631819124,6.854637565745746
364261448,Bix3 11,363081358.0,39.9130897,-76.7599458,35.0,15.0,1.1538461538461535,13.19461,1.136827841065405,39.913066,-76.7599354,37.34802,2.781375757482892,9.12524884018017,2.348019999999998,7.703477936799994,3.6399517887897255,11.942099426732884
371406714,Bix3 11,369481510.0,39.9125054,-76.7592484,40.0,26.0,2.0,12.92463,2.0116630031188514,39.9125127,-76.7593126,38.01419,5.53697659802688,18.165934301870507,-1.9858100000000007,-6.515124880400003,5.882308322690789,19.29891243741685
382861552,Bix3 11,381881573.0,39.912777,-76.7605036,40.0,10.0,0.7692307692307693,10.14528,0.9856800403734544,39.9127669,-76.7605098,39.8134,1.2416822627808572,4.073760835021948,-0.1865999999999985,-0.6122047439999952,1.2556251039639934,4.1195050660892285
388561510,Bix3 11,386781590.0,39.9131884,-76.7604017,35.0,20.0,1.5384615384615383,14.60078,1.3697898331459004,39.913174,-76.760394,36.62977,1.7311380737375015,5.679587037840945,1.6297700000000006,5.347014606800002,2.377601582108237,7.800530374643987
396907329,Bix3 11,395981521.0,39.9130157,-76.7593181,40.0,10.0,0.7692307692307693,11.74712,0.8512724821062524,39.9130223,-76.7593117,41.16664,0.9148833889779028,3.001586017894262,1.166640000000001,3.827559177600003,1.4825857496373336,4.86412663084015
403606574,Bix3 11,401681499.0,39.9123985,-76.7594844,40.0,25.0,1.9230769230769231,13.01342,1.92109376320752,39.9124325,-76.7595045,39.59486,4.152320611363079,13.623099554584444,-0.4051400000000029,-1.3291995176000095,4.172038456096811,13.68779064830066
412961911,Bix3 11,412481377.0,39.9126783,-76.7605895,40.0,5.0,0.3846153846153846,12.413,0.4028035124466285,39.9126955,-76.760587,41.41664,1.9249453985343048,6.315437861327289,1.416640000000001,4.647769177600003,2.3900384258288394,7.841333668996289
422461650,Bix3 11,421281496.0,39.9130897,-76.7599458,35.0,15.0,1.1538461538461535,14.0389,1.0684597796123627,39.9130622,-76.7599304,35.63054,3.3289496881122584,10.921751294746224,0.6305400000000034,2.068700853600012,3.388139123115033,11.115942360680725
429606777,Bix3 11,427681459.0,39.9125054,-76.7592484,40.0,26.0,2.0,13.01665,1.9974417380816107,39.9125183,-76.7593152,37.79904,5.876781707751722,19.28078049806016,-2.200960000000002,-7.220997606400006,6.275411393858196,20.588620717425723
440807432,Bix3 11,439781555.0,39.912777,-76.7605036,40.0,10.0,0.7692307692307693,10.70304,0.934313989296499,39.9127711,-76.7605082,41.08807,0.764626810864572,2.5086182261569223,1.088070000000002,3.5697835788000063,1.3298685968143358,4.363086087172346
446406850,Bix3 11,444581375.0,39.9131884,-76.7604017,35.0,20.0,1.5384615384615383,14.01727,1.4268113548501242,39.9131695,-76.7603928,37.29982,2.235097460317581,7.332997151708334,2.299819999999997,7.54534144879999,3.2069974570488964,10.521645536984302
454406758,Bix3 11,453581539.0,39.9130157,-76.7593181,40.0,10.0,0.7692307692307693,12.45641,0.802799522494844,39.9130483,-76.7593089,42.0612,3.709953411183785,12.171763549548208,2.0611999999999995,6.762467407999998,4.24408997938948,13.924180167980182
461561561,Bix3 11,459481482.0,39.9123985,-76.7594844,40.0,25.0,1.9230769230769231,13.50879,1.8506468751087253,39.9124037,-76.7594878,35.55054,0.6470380338249939,2.122828262894393,-4.449460000000002,-14.597966346400009,4.496259835554005,14.751509118879
470807102,Bix3 11,470481445.0,39.9126783,-76.7605895,40.0,5.0,0.3846153846153846,11.77738,0.4245426402136977,39.9126495,-76.7606017,39.43323,3.3681684903065245,11.050421909737258,-0.5667699999999982,-1.859481686799994,3.4155215139117088,11.20577960370209
480307422,Bix3 11,478981456.0,39.9130897,-76.7599458,35.0,15.0,1.1538461538461535,15.48293,0.968808875322694,39.9131394,-76.7599654,35.34331,5.775312451417926,18.947876103109987,0.3433100000000024,1.126345180400008,5.785507382036854,18.98132403928179
488406757,Bix3 11,486381359.0,39.9125054,-76.7592484,40.0,26.0,2.0,13.67924,1.9006903892321505,39.9125087,-76.759317,38.98739,5.863997704950305,19.23883823030916,-1.0126100000000022,-3.3222113924000074,5.950785502415832,19.52357510774596
499307052,Bix3 11,498581516.0,39.912777,-76.7605036,40.0,10.0,0.7692307692307693,12.73932,0.7849712543526657,39.912731,-76.7605255,40.09993,5.446873043143781,17.87031895486784,0.0999300000000005,0.3278543412000017,5.447789639204729,17.873326159888443
504708043,Bix3 11,503181404.0,39.9131884,-76.7604017,35.0,20.0,1.5384615384615383,16.82232,1.1888966563470436,39.9132294,-76.7604482,35.53047,6.044294810692817,19.83036418671342,0.5304700000000011,1.7403871948000036,6.067528177064208,19.906589144439337
512661900,Bix3 11,511781527.0,39.9130157,-76.7593181,40.0,10.0,0.7692307692307693,11.99907,0.833397921672263,39.9130492,-76.7592977,40.43822,4.112494747256067,13.492437266587594,0.4382200000000011,1.4377297048000035,4.135776809090252,13.56882198633566
518961951,Bix3 11,517181488.0,39.9123985,-76.7594844,40.0,25.0,1.9230769230769231,16.33421,1.5305300960377026,39.9123362,-76.7594342,40.81979,8.146071035062613,26.725955694674823,0.8197899999999976,2.689599823599992,8.187217412062909,26.86095037419248
527061532,Bix3 11,526881491.0,39.9126783,-76.7605895,40.0,5.0,0.3846153846153846,14.75927,0.3387701424257432,39.9126486,-76.7606001,39.8298,3.4249662722269343,11.236766344573017,-0.1702000000000012,-0.5583989680000041,3.429192617204823,11.25063230623027
536606524,Bix3 11,535781512.0,39.9130897,-76.7599458,35.0,15.0,1.1538461538461535,11.62784,1.2900074304427993,39.9131814,-76.7599824,36.73671,10.66670225746448,34.99574343437976,1.7367100000000022,5.697867636400007,10.807159602481024,35.45656151020385
544661996,Bix3 11,542681471.0,39.9125054,-76.7592484,40.0,26.0,2.0,14.93655,1.7406964794413702,39.9125098,-76.7593005,39.75594,4.471689192813331,14.670896771349687,-0.2440599999999975,-0.8007218103999918,4.478344506703737,14.692731791373888
555606408,Bix3 11,554681737.0,39.912777,-76.7605036,40.0,10.0,0.7692307692307693,11.44268,0.8739211443473033,39.9127519,-76.7605181,39.45094,3.053573198376911,10.018285092162904,-0.5490599999999972,-1.8013780103999908,3.1025434987193643,10.178948812338438
560762250,Bix3 11,559181498.0,39.9131884,-76.7604017,35.0,20.0,1.5384615384615383,14.66679,1.3636248967906406,39.9132176,-76.7604358,36.12517,4.360213395974821,14.30516251805003,1.1251699999999971,3.691502742799991,4.503051008742658,14.773789871523263
569261461,Bix3 11,568381369.0,39.9130157,-76.7593181,40.0,10.0,0.7692307692307693,12.6786,0.7887306169450886,39.9130377,-76.7593067,40.79311,2.6331715143079824,8.6390144310022,0.7931099999999986,2.602067012399996,2.750021035531,9.022379014211523
576162071,Bix3 11,573981440.0,39.9123985,-76.7594844,40.0,25.0,1.9230769230769231,12.82521,1.9492858206610264,39.9124101,-76.7594978,40.52436,1.7238303632567216,5.655611608987182,0.5243600000000015,1.720341262400005,1.801817008157544,5.911473313043596
585261832,Bix3 11,584881546.0,39.9126783,-76.7605895,40.0,5.0,0.3846153846153846,13.92997,0.3589383178858246,39.9126663,-76.7605921,40.04662,1.3530220550958258,4.439048879240589,0.0466199999999972,0.1529527607999908,1.3538249908964348,4.44168318313266
594406678,Bix3 11,593181597.0,39.9130897,-76.7599458,35.0,15.0,1.1538461538461535,14.92205,1.0052238130819826,39.9131377,-76.7599664,35.88034,5.620682379459557,18.440559577826093,0.8803399999999968,2.888254685599989,5.689206352943013,18.66537577098956
602261444,Bix3 11,600281542.0,39.9125054,-76.7592484,40.0,26.0,2.0,12.75066,2.0391101323382474,39.9125128,-76.7593092,38.18655,5.251950691176028,17.230809905637962,-1.8134500000000031,-5.94963929800001,5.556220564830412,18.22907067791821
613806766,Bix3 11,612681682.0,39.912777,-76.7605036,40.0,10.0,0.7692307692307693,11.82109,0.8459456784442044,39.9127568,-76.760523,41.77538,2.790565124201608,9.155397682085605,1.7753799999999984,5.8247377191999945,3.3074503559101727,10.85121542568433
619162331,Bix3 11,617481469.0,39.9131884,-76.7604017,35.0,20.0,1.5384615384615383,13.88583,1.4403172154635338,39.913201,-76.7604147,35.66936,1.7872012461101696,5.8635213362880885,0.6693599999999975,2.196063062399992,1.9084368220346568,6.261275863204182
259647924,Bix3 10-1,257723530.0,40.8009581,-77.8929645,20.0,26.0,2.0,16.70017,1.556870379163805,40.8008877,-77.8929824,43.13382,7.974054669652485,26.16159752238266,23.13382,75.8983620088,24.469556098691424,80.28069843083077
263504127,Bix3 10-1,262123289.0,40.8005317,-77.8933883,25.0,26.0,2.0,20.7294,1.2542572385114863,40.8005332,-77.8934313,34.77977,3.6243181154840745,11.89080784600477,9.77977,32.0858606068,10.429745109787008,34.21832494599361
271048133,Bix3 10-1,268523202.0,40.8007551,-77.8942144,30.0,26.0,2.0,14.637,1.776320284211245,40.8007716,-77.8941639,34.55965,4.631098822417849,15.193894260541375,4.559649999999998,14.959482105999992,6.499037192192392,21.322301181632486
275503916,Bix3 10-1,274025879.0,40.8011936,-77.8940481,35.0,26.0,2.0,16.35807,1.5894295598441623,40.8011985,-77.8940568,35.04133,0.9130182135856388,2.9954666758603072,0.041330000000002,0.1355971172000068,0.9139531865687166,2.998534172622108
280103708,Bix3 10-1,278323144.0,40.8012667,-77.8932971,40.0,26.0,2.0,14.08597,1.8458082758943828,40.8012674,-77.8932962,42.60071,0.1086463281747522,0.3564512193288542,2.6007099999999994,8.532513396399999,2.602978395747044,8.53995563990273
292447837,Bix3 10-1,288825478.0,40.8004911,-77.8937852,40.0,26.0,2.0,12.84491,2.024148086674021,40.8005569,-77.8937901,40.86173,7.330312602662478,24.049582799319165,0.8617300000000014,2.8271982532000046,7.380790028557401,24.215191157292264
306547922,Bix3 10-1,304323249.0,40.8010312,-77.8945738,40.0,26.0,2.0,10.61249,2.449943415729956,40.8010338,-77.894504,37.18041,5.884025246882477,19.304545390981907,-2.819589999999998,-9.250623655599991,6.524710022219408,21.406529629298323
313148294,Bix3 10-1,311625887.0,40.8014941,-77.8936726,40.0,26.0,2.0,14.61894,1.7785147213135837,40.8014695,-77.8936669,39.66562,2.7779372756124783,9.113967731320445,-0.334380000000003,-1.09704727920001,2.797989544590416,9.179756017474018
320603250,Bix3 10-1,318625854.0,40.8008891,-77.8929323,40.0,26.0,2.0,15.32177,1.6969318818909302,40.8008973,-77.8929714,37.83309,3.416094027175017,11.207657928116884,-2.166910000000001,-7.109285004400005,4.045392113331022,13.272284261100951
335403122,Bix3 10-1,332923273.0,40.8004911,-77.8937852,40.0,26.0,2.0,13.48962,1.9274078884357009,40.8004983,-77.8937849,39.95349,0.8012279196122307,2.628700607780591,-0.0465099999999978,-0.1525918683999929,0.8025766999272674,2.633125740189376
350904584,Bix3 10-1,348425896.0,40.8010312,-77.8945738,40.0,26.0,2.0,13.0353,1.994583937462122,40.8010331,-77.8945406,39.53014,2.803300237550661,9.19717955136571,-0.469859999999997,-1.5415354823999905,2.842404025020298,9.325472821447594
358203251,Bix3 10-1,356625882.0,40.8014941,-77.8936726,40.0,26.0,2.0,14.94127,1.7401465872713633,40.8014612,-77.8936649,40.16752,3.7163317997967824,12.192690022045277,0.1675200000000032,0.5496063168000106,3.720105508796866,12.205070957481112
366047901,Bix3 10-1,364123351.0,40.8008891,-77.8929323,40.0,26.0,2.0,14.78026,1.7591030198386226,40.8008888,-77.8929894,39.17508,4.807745297523278,15.77344308192627,-0.8249199999999988,-2.706430532799996,4.878002444880198,16.003945541260748
382448115,Bix3 10-1,380123177.0,40.8004911,-77.8937852,40.0,26.0,2.0,12.80575,2.0303379341311523,40.8005007,-77.8937829,40.51569,1.0851915079511376,3.56033970694641,0.5156899999999993,1.6918963795999975,1.2014894027952403,3.941894492266736
399948184,Bix3 10-1,397025943.0,40.8010312,-77.8945738,40.0,26.0,2.0,11.93243,2.17893589151581,40.8010375,-77.8945424,39.61787,2.7350564488865925,8.973282599765088,-0.3821299999999965,-1.2537073891999886,2.761622189130174,9.06044054298584
408304862,Bix3 10-1,406426005.0,40.8014941,-77.8936726,40.0,26.0,2.0,14.03619,1.8523545207068304,40.8014406,-77.8936781,43.57143,5.968600526673518,19.582023351931543,3.5714299999999994,11.717290401199998,6.955523308271448,22.819959090709297
415948509,Bix3 10-1,413923518.0,40.8008891,-77.8929323,40.0,26.0,2.0,14.36586,1.8098463997282448,40.8008936,-77.8929755,37.74366,3.6715717535146015,12.045839471800848,-2.2563400000000016,-7.402690525600005,4.30946740755819,14.13867304941321
431047460,Bix3 10-1,428723065.0,40.8004911,-77.8937852,40.0,26.0,2.0,12.78095,2.0342775771754056,40.8005153,-77.8937825,39.10418,2.7012603893463907,8.862403135783213,-0.8958200000000005,-2.9390420888000017,2.845927118436418,9.337031527250938
446003378,Bix3 10-1,443826288.0,40.8010312,-77.8945738,40.0,26.0,2.0,14.45746,1.7983795217140497,40.8010249,-77.8945176,35.73746,4.783445530783867,15.69371943521694,-4.262540000000001,-13.984711733600005,6.407074090220603,21.020584958159365
453904392,Bix3 10-1,452225799.0,40.8014941,-77.8936726,40.0,26.0,2.0,12.4524,2.087950917092287,40.8014664,-77.8936688,37.43789,3.0975375202027857,10.162524997782109,-2.562109999999997,-8.40587297239999,4.019844069259902,13.188465216190655
461148076,Bix3 10-1,459123410.0,40.8008891,-77.8929323,40.0,26.0,2.0,14.15801,1.8364162760161915,40.8008811,-77.8929908,41.59872,5.005233642286415,16.42137074295896,1.59872,5.245144524800001,5.25435718735182,17.238705234551347
476203182,Bix3 10-1,474025767.0,40.8004911,-77.8937852,40.0,26.0,2.0,12.35943,2.103656883853058,40.8005019,-77.8937863,41.57467,1.2048096255861114,3.9527876120079375,1.5746699999999976,5.166240322799992,1.9827132527939928,6.504964948296646
486903877,Bix3 10-1,484825697.0,40.8010312,-77.8945738,40.0,26.0,2.0,16.94306,1.5345516099217025,40.8010434,-77.8945333,45.81334,3.670034428894147,12.040795755693074,5.813339999999997,19.07263840559999,6.874887247429469,22.5554050768565
493248417,Bix3 10-1,491825952.0,40.8014941,-77.8936726,40.0,26.0,2.0,14.84887,1.7509749900160754,40.8015075,-77.8936793,39.01571,1.5936164382475804,5.228400555260191,-0.9842900000000014,-3.2292980036000047,1.8730830617868783,6.145285832432863
500647946,Bix3 10-1,498923498.0,40.8008891,-77.8929323,40.0,26.0,2.0,15.48222,1.679345726904798,40.8008875,-77.892946,31.69093,1.1671416525348954,3.829205019302586,-8.309069999999998,-27.260729218799995,8.390641447588013,27.528352086904658
514647882,Bix3 10-1,512523200.0,40.8004911,-77.8937852,40.0,26.0,2.0,11.21712,2.3178855178512845,40.800511,-77.8937852,41.88739,2.2134042169505874,7.261825091140166,1.887390000000004,6.192224607600012,2.9088484387665607,9.543466311842884
524448103,Bix3 10-1,522123470.0,40.8010312,-77.8945738,40.0,26.0,2.0,14.68152,1.770933799770051,40.8010428,-77.8944732,42.79173,8.567869359193722,28.10980850841713,2.791730000000001,9.159219453200004,9.011223099508229,29.56438119379057
531047508,Bix3 10-1,529523438.0,40.8014941,-77.8936726,40.0,26.0,2.0,14.04621,1.8510331256616552,40.8014693,-77.8936672,38.62602,2.795631903124036,9.17202097304546,-1.373980000000003,-4.50780854320001,3.115024683395771,10.219897582272182
539203120,Bix3 10-1,537225499.0,40.8008891,-77.8929323,40.0,26.0,2.0,12.71804,2.0443401656230047,40.8009021,-77.89302,40.50711,7.52428700027076,24.68598176196832,0.5071099999999973,1.663746772399991,7.541356337857504,24.74198352749641
551147930,Bix3 10-1,548825801.0,40.8004911,-77.8937852,40.0,26.0,2.0,12.61018,2.061826238800715,40.8005139,-77.8937849,31.66932,2.5360864025229923,8.320493712853533,-8.330680000000001,-27.3316281712,8.708154999967675,28.57006325009395
562203017,Bix3 10-1,560123568.0,40.8010312,-77.8945738,40.0,26.0,2.0,13.35447,1.946913655128208,40.8010317,-77.8944696,37.92848,8.77344979319162,28.7842850194948,-2.07152,-6.796325676799999,9.014688923310336,29.575752007153483
568948179,Bix3 10-1,567323486.0,40.8014941,-77.8936726,40.0,26.0,2.0,13.86659,1.875010366643854,40.8014735,-77.8936697,36.70405,2.3042358042709448,7.559828996084287,-3.2959499999999977,-10.813484597999992,4.021540630676775,13.19403136274959
217037736,Bix3 8-1,214957454.0,40.8015185,-77.8933132,45.0,25.0,1.9230769230769231,14.4652,1.7282858169952715,40.8014961,-77.89334,46.46613,3.361396700758025,11.02820475171496,1.4661299999999995,4.810137949199999,3.667223057950925,12.031572097447714
230337388,Bix3 8-1,228158508.0,40.8010474,-77.8945844,45.0,25.0,1.9230769230769231,13.79691,1.8119999333184025,40.8010336,-77.8944599,45.78141,10.594242431075193,34.75801433756873,0.781410000000001,2.563681184400004,10.623020958112338,34.85243208021328
238038206,Bix3 8-1,235957421.0,40.8005398,-77.8937745,45.0,25.0,1.9230769230769231,11.95199,2.0917018839540527,40.8005822,-77.8937629,43.18185,4.816071301745875,15.800759369619938,-1.8181500000000028,-5.965059246000009,5.14783568172103,16.88922521801762
244581618,Bix3 8-1,242957450.0,40.8007185,-77.892766,45.0,25.0,1.9230769230769231,13.13667,1.903069803839177,40.8007643,-77.8928291,44.38038,7.360475686358316,24.14854305083182,-0.6196199999999976,-2.032874080799992,7.386510087576672,24.233957755725047
252237357,Bix3 8-1,250757520.0,40.8015185,-77.8933132,45.0,20.0,1.5384615384615383,12.32816,1.6223021115884284,40.8014793,-77.8933484,43.4181,5.271975278785607,17.296507373650968,-1.5818999999999974,-5.189960795999991,5.504192125110329,18.05837369174697
264282471,Bix3 8-1,262557405.0,40.8010474,-77.8945844,45.0,20.0,1.5384615384615383,14.08414,1.4200370061643808,40.8010265,-77.8944996,45.32098,7.508763196067023,24.63505064418453,0.3209799999999987,1.0530840231999958,7.515620592806069,24.657548665701864
272637496,Bix3 8-1,270857399.0,40.8005398,-77.8937745,45.0,20.0,1.5384615384615383,12.7815,1.5647615694558543,40.8005662,-77.8937655,45.86544,3.0325767742092093,9.949399183896542,0.8654399999999995,2.8393701695999987,3.153649994066104,10.346621046531835
279437704,Bix3 8-1,278057515.0,40.8007185,-77.892766,45.0,20.0,1.5384615384615383,12.67224,1.578252937128716,40.8007505,-77.8927964,45.09948,4.384025941104919,14.383287668614662,0.0994799999999997,0.3263779631999993,4.3851544696488025,14.386990190202576
287522190,Bix3 8-1,286357463.0,40.8015185,-77.8933132,45.0,15.0,1.1538461538461535,12.0917,1.2405203569390575,40.8015097,-77.8933296,45.48175,1.6925353683991222,5.552937738058576,0.4817499999999981,1.580544669999994,1.7597610734932032,5.773494520359441
301038280,Bix3 8-1,299357355.0,40.8010474,-77.8945844,45.0,15.0,1.1538461538461535,12.40548,1.2091430561332572,40.8010233,-77.8945231,46.93011,5.815824537788961,19.08078977655953,1.930109999999999,6.332382092399997,6.127735280382809,20.104119017291136
