TimeUS,Log,CMDTimeUS,CMDLat,CMDLng,CMDAlt,AcceptRadius,AcceptRatio,AcceptAirspeed,AirspeedRatio,Lat,Lng,RelHomeAlt,Haversine,HaversineFt,dAlt,dAltFt,Dist,DistFt
568756642,Skyhunter A 2,567677228.0,39.9123491,-76.7592216,20.0,28.0,2.0,18.73761,1.494320780505091,39.9123899,-76.7589611,21.14734,22.682772065870022,74.41854590458901,1.1473399999999998,3.7642389655999993,22.711770905585794,74.5136864578821
579299116,Skyhunter A 2,577977246.0,39.9125425,-76.7606646,30.0,28.0,2.0,17.61876,1.5892151320524257,39.9124658,-76.7607947,28.98932,13.999030887896451,45.92858049824619,-1.0106800000000007,-3.315879371200002,14.03546721212653,46.048122248233206
176648693,Skyhunter A 13-2,175346954.0,39.9123902,-76.7592135,20.0,29.0,2.0,20.45075,1.4180409031453616,39.9124092,-76.759066,32.76812,12.759964737750416,41.86340271020108,12.768120000000003,41.89015882080001,18.051082749880525,59.22271432911802
174369699,Skyhunter A 13-2,184346964.0,39.9129869,-76.7589641,30.0,29.0,2.0,21.27241,1.3632681957521502,39.9127518,-76.7589864,27.9975,26.218428687433622,86.01846957487973,-2.0025000000000013,-6.5698821000000045,26.294790531358917,86.26900056690357
196127017,Skyhunter A 13-2,194647983.0,39.9136286,-76.7605841,40.0,29.0,2.0,17.63835,1.6441447187520375,39.913562,-76.7605646,45.22481,7.592177205881865,24.908718664145457,5.224809999999998,17.141765640399992,9.216278764317632,30.23713602112386
204548076,Skyhunter A 13-2,202546975.0,39.912633,-76.7606592,50.0,29.0,2.0,12.8584,2.255335033907796,39.912715,-76.7605998,43.8884,10.433849789247333,34.231791742554215,-6.111600000000003,-20.051181744000008,12.092017035407146,39.67197317044518
212947531,Skyhunter A 13-2,212147022.0,39.9132831,-76.7592537,35.0,29.0,2.0,16.73413,1.7329852224167015,39.9132639,-76.7592445,34.16543,2.275210696997338,7.464602263136746,-0.8345699999999994,-2.738090638799998,2.423446058948107,7.9509387680393075
218108156,Skyhunter A 13-2,216346941.0,39.9130774,-76.7583203,40.0,29.0,2.0,18.79972,1.5425761660280046,39.9130532,-76.758395,40.41413,6.91798077532104,22.69678804690428,0.4141300000000001,1.3586942692000004,6.930365189844725,22.73741932945017
225587575,Skyhunter A 13-2,223747024.0,39.9121639,-76.7587924,45.0,29.0,2.0,14.11502,2.054548983990104,39.912255,-76.7588248,43.16143,10.502981716624989,34.45860253517193,-1.8385699999999967,-6.032053998799991,10.66269030707817,34.98258086707435
233587587,Skyhunter A 13-2,233048144.0,39.9133736,-76.7597044,40.0,29.0,2.0,15.61435,1.8572659124459232,39.9133585,-76.7597441,36.97144,3.7804586525852417,12.403079965747764,-3.028559999999999,-9.936220790399997,4.843969787014222,15.89228983602774
237747497,Skyhunter A 13-2,236147007.0,39.9136286,-76.7605841,40.0,29.0,2.0,18.88407,1.535685898220034,39.913662,-76.7605915,42.07708,3.7682193728006106,12.362924847059157,2.0770800000000023,6.814567147200007,4.302759413207975,14.11666519322925
246608517,Skyhunter A 13-2,244546861.0,39.912633,-76.7606592,50.0,29.0,2.0,11.83168,2.451046681451831,39.9127222,-76.7605987,44.65344,11.183671904743925,36.69183813196005,-5.346559999999997,-17.54120791039999,12.395976004597562,40.669213914923866
254648678,Skyhunter A 13-2,253848016.0,39.9132831,-76.7592537,35.0,29.0,2.0,17.05768,1.7001139662603588,39.9132622,-76.7592389,33.10802,2.6453973328974283,8.679125385663198,-1.8919799999999969,-6.207283663199989,3.2523399836580453,10.67040711198466
259308286,Skyhunter A 13-2,257648114.0,39.9130774,-76.7583203,40.0,29.0,2.0,19.95383,1.4533550701795095,39.9130657,-76.7583489,41.38037,2.76529010172199,9.072474377333576,1.3803699999999992,4.528773110799998,3.0906715586716125,10.139998876552172
266587490,Skyhunter A 13-2,264746997.0,39.9121639,-76.7587924,45.0,29.0,2.0,13.33527,2.174684127130534,39.912237,-76.7588211,46.52988,8.49132366747706,27.85867434120544,1.5298799999999986,5.019291499199995,8.628042097733186,28.307225635926944
275008133,Skyhunter A 13-2,274347027.0,39.9133736,-76.7597044,40.0,29.0,2.0,15.28853,1.8968468518556068,39.9133642,-76.7597337,39.93335,2.7094987814417584,8.889431982105378,-0.0666500000000027,-0.218667986000009,2.7103184073341597,8.892121043518204
279587649,Skyhunter A 13-2,277946912.0,39.9136286,-76.7605841,40.0,29.0,2.0,19.74122,1.469007487885754,39.9136326,-76.7605844,39.76554,0.4456409098506491,1.4620765226744037,-0.2344599999999985,-0.7692257463999953,0.5035546764081471,1.6520823245469054
287947564,Skyhunter A 13-2,285848169.0,39.912633,-76.7606592,50.0,29.0,2.0,14.94582,1.9403418480886296,39.9126974,-76.7606039,47.15517,8.577065781765006,28.1399804994459,-2.8448300000000017,-9.333432057200003,9.036543318859492,29.64745278224698
295587632,Skyhunter A 13-2,294946976.0,39.9132831,-76.7592537,35.0,29.0,2.0,19.8917,1.4578944987105174,39.9132461,-76.7592184,34.28362,5.099570518382961,16.730874939531557,-0.7163800000000009,-2.350328159200003,5.149642684338464,16.895153704485008
300108135,Skyhunter A 13-2,298346995.0,39.9130774,-76.7583203,40.0,29.0,2.0,21.8515,1.3271400132714,39.9130788,-76.7583201,42.12509,0.1566488966187329,0.5139399659826037,2.12509,6.972080275600001,2.13085578698134,6.99099690015986
307208239,Skyhunter A 13-2,305448087.0,39.9121639,-76.7587924,45.0,29.0,2.0,16.27621,1.7817415725159604,39.912217,-76.7588193,46.46679,6.336323334610488,20.78846304912347,1.4667900000000031,4.81230330360001,6.503880864901308,21.338192496802804
315108005,Skyhunter A 13-2,314648021.0,39.9133736,-76.7597044,40.0,29.0,2.0,16.44254,1.7637177710986258,39.9133513,-76.7597655,35.25863,5.772620745459175,18.93904504653228,-4.741370000000003,-15.555676350800011,7.470190074409464,24.508498403725547
319367650,Skyhunter A 13-2,317746960.0,39.9136286,-76.7605841,40.0,29.0,2.0,20.91633,1.386476499462382,39.9136735,-76.7606103,37.57347,5.471440805746756,17.950921853126186,-2.42653,-7.961056685199999,5.985374869771375,19.63705728774072
327248612,Skyhunter A 13-2,325347000.0,39.912633,-76.7606592,50.0,29.0,2.0,15.08174,1.92285505518594,39.9126873,-76.7606228,43.67404,6.791182959725502,22.280784701585816,-6.325960000000002,-20.754462606400008,9.28105252188921,30.449648355914995
335008202,Skyhunter A 13-2,334347019.0,39.9132831,-76.7592537,35.0,29.0,2.0,17.23506,1.6826167126775304,39.9132543,-76.7592319,32.9003,3.704071934070593,12.152467364176164,-2.0996999999999986,-6.888779747999995,4.257803304847402,13.969171394675552
339448636,Skyhunter A 13-2,337648210.0,39.9130774,-76.7583203,40.0,29.0,2.0,20.70521,1.400613661972035,39.9130835,-76.7583087,43.42453,1.1998741195198896,3.9365950062856343,3.424529999999997,11.23533500519999,3.628650385969088,11.905021332302825
346408221,Skyhunter A 13-2,344648044.0,39.9121639,-76.7587924,45.0,29.0,2.0,13.81662,2.0989214438842496,39.9122074,-76.7588151,45.77743,5.211535335672614,17.09821359068814,0.7774300000000025,2.5506234412000084,5.269202782192413,17.287411255928156
354648759,Skyhunter A 13-2,354147034.0,39.9133736,-76.7597044,40.0,29.0,2.0,17.94809,1.6157708146103569,39.9133549,-76.7597478,38.94023,4.246767491847444,13.932964657952768,-1.0597700000000003,-3.476935806800001,4.377002008534178,14.360243269679271
358848832,Skyhunter A 13-2,357346986.0,39.9136286,-76.7605841,40.0,29.0,2.0,22.16251,1.3085160480469045,39.9136908,-76.7606094,36.96212,7.247153669404396,23.77675164472872,-3.037880000000001,-9.966798219200005,7.858113717830864,25.78121381000821
366848721,Skyhunter A 13-2,364847958.0,39.912633,-76.7606592,50.0,29.0,2.0,16.93163,1.7127707137469932,39.9126893,-76.7606225,49.46592,7.001164986452168,22.96970213415173,-0.534080000000003,-1.75223102720001,7.021506434799002,23.03643917154596
375008209,Skyhunter A 13-2,374146869.0,39.9132831,-76.7592537,35.0,29.0,2.0,15.57119,1.862413855331545,39.9132611,-76.7592304,40.47157,3.152614478545994,10.34322368579284,5.47157,17.9513457188,6.314828288658198,20.717941242561363
379848702,Skyhunter A 13-2,378146977.0,39.9130774,-76.7583203,40.0,29.0,2.0,21.7904,1.3308612967178206,39.9130677,-76.7583496,39.98943,2.72255858816356,8.932279118390534,-0.0105700000000013,-0.0346784788000042,2.722579106450932,8.932346435608476
386367535,Skyhunter A 13-2,384648092.0,39.9121639,-76.7587924,45.0,29.0,2.0,16.25489,1.784078514219413,39.9121992,-76.7588117,42.71581,4.257569765720993,13.968405190168063,-2.2841900000000024,-7.494061919600008,4.831606799614547,15.85172885244739
394448532,Skyhunter A 13-2,394048108.0,39.9133736,-76.7597044,40.0,29.0,2.0,19.93622,1.454638843271192,39.9133512,-76.7598058,38.97394,9.002306562479758,29.535127462446088,-1.026060000000001,-3.366338690400004,9.06059173390271,29.726351784257368
398367613,Skyhunter A 13-2,396946972.0,39.9136286,-76.7605841,40.0,29.0,2.0,22.26331,1.3025915733105276,39.9137267,-76.7606019,42.91191,11.016467730190495,36.14326798791819,2.911909999999999,9.553510804399997,11.394813780770116,37.38456084450183
407248745,Skyhunter A 13-2,405248015.0,39.912633,-76.7606592,50.0,29.0,2.0,16.53769,1.7535701781808704,39.912618,-76.7606822,46.32145,2.5756144603072944,8.450178945954583,-3.678550000000001,-12.068733982000005,4.49060351741768,14.732951644084622
415208525,Skyhunter A 13-2,414546924.0,39.9132831,-76.7592537,35.0,29.0,2.0,21.96676,1.320176484834359,39.9132589,-76.7592407,32.0165,2.9112103652619377,9.551215414765975,-2.9835,-9.788386139999998,4.168503093534722,13.676191689392455
419587611,Skyhunter A 13-2,417946890.0,39.9130774,-76.7583203,40.0,29.0,2.0,24.02347,1.2071528384533958,39.9131087,-76.758264,38.70899,5.932102376846037,19.46227876205155,-1.29101,-4.2355972484,6.070959185292089,19.917845733473698
426248763,Skyhunter A 13-2,424648149.0,39.9121639,-76.7587924,45.0,29.0,2.0,18.1461,1.5981395451364204,39.9121609,-76.7587848,44.19276,0.7292084160536957,2.392416139725607,-0.8072400000000002,-2.6484252816000007,1.087833319789176,3.5690070688971205
434848578,Skyhunter A 13-2,434546973.0,39.9133736,-76.7597044,40.0,29.0,2.0,15.58692,1.8605343454640173,39.9133465,-76.7598278,39.45225,10.950559366235554,35.92703319112025,-0.5477500000000006,-1.797080110000002,10.964250110971989,35.971950334081335
438848699,Skyhunter A 13-2,437448052.0,39.9136286,-76.7605841,40.0,29.0,2.0,19.19494,1.5108148293248118,39.9137566,-76.7606162,40.29639,14.497959134489674,47.5654842467991,0.2963900000000024,0.9724081676000078,14.500988452427393,47.57542295426189
447708154,Skyhunter A 13-2,445946964.0,39.912633,-76.7606592,50.0,29.0,2.0,15.47347,1.8741756050840568,39.9127016,-76.760618,52.53183,8.40079687151921,27.561670407955084,2.53183,8.306529137199998,8.774027081416317,28.786179009793912
456147528,Skyhunter A 13-2,455248020.0,39.9132831,-76.7592537,35.0,29.0,2.0,15.26048,1.9003334102203864,39.9132641,-76.7592342,38.86245,2.689531467770021,8.823922420718597,3.8624500000000026,12.672080458000009,4.70660169534508,15.441607106155953
461147534,Skyhunter A 13-2,459547010.0,39.9130774,-76.7583203,40.0,29.0,2.0,21.45316,1.351782208308706,39.9130563,-76.7583666,39.98204,4.594578616036238,15.074077306636331,-0.0179600000000021,-0.0589238864000072,4.594613718315989,15.074192471599828
468108067,Skyhunter A 13-2,466248069.0,39.9121639,-76.7587924,45.0,29.0,2.0,14.60319,1.98586747142234,39.9122265,-76.7588172,42.98047,7.277134451026463,23.875113792305655,-2.019530000000003,-6.62575480520001,7.552164407586492,24.777443074986067
476147474,Skyhunter A 13-2,475647978.0,39.9133736,-76.7597044,40.0,29.0,2.0,13.56623,2.1376609419123813,39.9133531,-76.7597485,38.6647,4.399288890540744,14.433362963641692,-1.3352999999999966,-4.3809056519999885,4.597474179637684,15.0835771875225
480147495,Skyhunter A 13-2,478648053.0,39.9136286,-76.7605841,40.0,29.0,2.0,19.14323,1.5148958665805092,39.9136712,-76.7606063,40.40115,5.1027339868027015,16.741253773261775,0.4011500000000012,1.316108966000004,5.118477846251891,16.792906857097055
488648747,Skyhunter A 13-2,486648023.0,39.912633,-76.7606592,50.0,29.0,2.0,13.25161,2.188413332417721,39.9127046,-76.7606099,51.42417,9.006228079909176,29.54799333368922,1.4241699999999966,4.672473902799989,9.118136016546613,29.91514536852679
497147604,Skyhunter A 13-2,496248071.0,39.9132831,-76.7592537,35.0,29.0,2.0,13.10476,2.212936368159356,39.9132644,-76.7592379,37.33221,2.478518250224289,8.131621816065858,2.3322100000000034,7.651607856400012,3.403271396876084,11.16558892972693
502367608,Skyhunter A 13-2,500648123.0,39.9130774,-76.7583203,40.0,29.0,2.0,21.22748,1.366153683809854,39.9130509,-76.7583867,38.5829,6.385709900361013,20.950492469500425,-1.4170999999999978,-4.649278363999993,6.541059802628978,21.460170642857257
509408177,Skyhunter A 13-2,507648159.0,39.9121639,-76.7587924,45.0,29.0,2.0,11.17833,2.5943052316401465,39.9122155,-76.7588237,43.32881,6.330082521297546,20.76798793917384,-1.6711900000000028,-5.48290699960001,6.54697034837769,21.47956219777146
517848553,Skyhunter A 13-2,517346953.0,39.9133736,-76.7597044,40.0,29.0,2.0,12.96373,2.2370104900364325,39.9133489,-76.7597766,40.36052,6.744454643135669,22.12747657138523,0.360520000000001,1.1828084368000036,6.754083439202857,22.1590671106743
522147534,Skyhunter A 13-2,520546966.0,39.9136286,-76.7605841,40.0,29.0,2.0,18.23623,1.5902409653749707,39.9136754,-76.7606026,40.47845,5.439398440489774,17.845795979496472,0.4784500000000022,1.5697178980000075,5.460400149888522,17.91469922776026
530208277,Skyhunter A 13-2,528346957.0,39.912633,-76.7606592,50.0,29.0,2.0,14.43328,2.009245299751685,39.912705,-76.7605979,51.33077,9.56465191892928,31.380092601699936,1.3307700000000011,4.366043446800004,9.656785962377832,31.682369656807687
538947588,Skyhunter A 13-2,537946932.0,39.9132831,-76.7592537,35.0,29.0,2.0,15.24721,1.9019873144004704,39.9132652,-76.7592407,40.76443,2.2790142543222784,7.477081126150704,5.764429999999997,18.91217252119999,6.198593323997317,20.33659292110336
544908179,Skyhunter A 13-2,543048183.0,39.9130774,-76.7583203,40.0,29.0,2.0,18.56968,1.5616855002347911,39.913045,-76.7584243,40.98921,9.576457309467386,31.41882419919298,0.98921,3.2454397364,9.627412478135096,31.58599995476475
552548186,Skyhunter A 13-2,550747005.0,39.9121639,-76.7587924,45.0,29.0,2.0,13.77446,2.105345690502568,39.9122412,-76.7588247,40.25916,9.028600397380426,29.6213933277416,-4.740839999999999,-15.553937505599997,10.197607025237732,33.45671703268096
560147502,Skyhunter A 13-2,559648143.0,39.9133736,-76.7597044,40.0,29.0,2.0,17.33587,1.6728321105315165,39.9133528,-76.7597683,37.33895,5.9220531109757575,19.429308728613705,-2.661050000000003,-8.73047928200001,6.492449472403899,21.300687927041608
564208087,Skyhunter A 13-2,562747008.0,39.9136286,-76.7605841,40.0,29.0,2.0,18.39605,1.5764253739253808,39.9137122,-76.7606194,38.62234,9.774032898620623,32.06703809511048,-1.3776599999999988,-4.519882034399996,9.870646695071112,32.38401250305711
573208140,Skyhunter A 13-2,571248076.0,39.912633,-76.7606592,50.0,29.0,2.0,12.04407,2.407823933271726,39.9127319,-76.7606009,55.79161,12.07247068584036,39.60784472493249,5.791609999999999,19.001345752399995,13.389820568348735,43.92985891346127
581708180,Skyhunter A 13-2,580848104.0,39.9132831,-76.7592537,35.0,29.0,2.0,15.37107,1.8866611107749816,39.9132555,-76.759238,35.10042,3.3493234956074183,10.98859449732864,0.1004199999999997,0.3294619527999991,3.3508285624048115,10.993532380680202
586967595,Skyhunter A 13-2,585248106.0,39.9130774,-76.7583203,40.0,29.0,2.0,20.22978,1.4335301718555515,39.9130524,-76.7583956,37.92334,7.00003114191414,22.965982171637588,-2.076659999999997,-6.81318919439999,7.301571936464624,23.9552892720306
594008265,Skyhunter A 13-2,592448009.0,39.9121639,-76.7587924,45.0,29.0,2.0,22.37527,1.2960737457022864,39.9121963,-76.7588233,42.23052,4.465022679122176,14.6490250065712,-2.769480000000001,-9.086220763200004,5.254183761106513,17.238136250788692
602367564,Skyhunter A 13-2,601947002.0,39.9133736,-76.7597044,40.0,29.0,2.0,15.73468,1.843062585321087,39.9133562,-76.7598014,40.57349,8.4985915067374,27.88251895896433,0.5734899999999996,1.8815289315999988,8.517919251700445,27.945930197748886
606347549,Skyhunter A 13-2,604847969.0,39.9136286,-76.7605841,40.0,29.0,2.0,20.10888,1.4421489411643016,39.913745,-76.7606183,39.96,13.271436447593493,43.54145955472264,-0.0399999999999991,-0.1312335999999972,13.27149672729165,43.541657322767534
615367650,Skyhunter A 13-2,613448119.0,39.912633,-76.7606592,50.0,29.0,2.0,14.72341,1.969652410684753,39.9126988,-76.7606021,45.82769,8.79168081682692,28.844098091078436,-4.172310000000003,-13.68868154040001,9.731486131165294,31.92744895857234
623008142,Skyhunter A 13-2,622346965.0,39.9132831,-76.7592537,35.0,29.0,2.0,19.88334,1.4585074740964044,39.9132578,-76.7592335,33.60252,3.299779878394232,10.826049816230933,-1.3974800000000016,-4.584908283200005,3.583503536520573,11.756901742758158
627408234,Skyhunter A 13-2,625747017.0,39.9130774,-76.7583203,40.0,29.0,2.0,22.95071,1.2635774666666084,39.9130806,-76.7583134,40.25089,0.6878951889355962,2.256874051667461,0.2508899999999983,0.8231299475999944,0.7322196276123297,2.402295443055636
634147572,Skyhunter A 13-2,632346953.0,39.9121639,-76.7587924,45.0,29.0,2.0,15.69917,1.847231414144824,39.9122078,-76.7588034,46.30528,4.972201064021894,16.31299613888559,1.305280000000003,4.282414835200011,5.140674984810892,16.865732117166967
642147545,Skyhunter A 13-2,641648170.0,39.9133736,-76.7597044,40.0,29.0,2.0,16.73427,1.7329707241487082,39.9133611,-76.7597492,40.59166,4.067018567844033,13.343237198125417,0.5916599999999974,1.941141794399992,4.109829873217154,13.483694241245768
646147479,Skyhunter A 13-2,644648093.0,39.9136286,-76.7605841,40.0,29.0,2.0,21.14053,1.3717726092959828,39.9136988,-76.7606015,42.21062,7.947942146079536,26.075926510543585,2.2106199999999987,7.252690520799995,8.249643940305992,27.065761825113512
654987167,Skyhunter A 13-2,652947026.0,39.912633,-76.7606592,50.0,29.0,2.0,14.83019,1.9554705637621637,39.9127179,-76.7606053,45.47393,10.50321642570609,34.459372578113566,-4.526069999999997,-14.84931149879999,11.436908014412031,37.52266529000357
662568157,Skyhunter A 13-2,661946959.0,39.9132831,-76.7592537,35.0,29.0,2.0,21.21515,1.3669476765424708,39.9132549,-76.7592251,32.14033,3.973844474321808,13.03754790513396,-2.8596700000000013,-9.382119722800004,4.895830104793055,16.062435241009247
666947585,Skyhunter A 13-2,665248118.0,39.9130774,-76.7583203,40.0,29.0,2.0,21.62797,1.340856307827318,39.9130947,-76.7582997,41.27118,2.605994152561645,8.549849855490345,1.271180000000001,4.170538191200004,2.89950066659511,9.5127977669919
674147570,Skyhunter A 13-2,672346933.0,39.9121639,-76.7587924,45.0,29.0,2.0,17.18829,1.6871951776471077,39.9122299,-76.7588147,44.36459,7.583460685809023,24.88012115642968,-0.6354100000000003,-2.084678544400001,7.610034286474081,24.967304888435624
681508544,Skyhunter A 13-2,681048103.0,39.9133736,-76.7597044,40.0,29.0,2.0,15.66671,1.851058709837611,39.9133437,-76.7597694,38.27017,6.466099178796472,21.214236829762616,-1.7298299999999998,-5.675295457199999,6.693485670331446,21.960255526650226
685387323,Skyhunter A 13-2,683848061.0,39.9136286,-76.7605841,40.0,29.0,2.0,19.72809,1.4699851835631323,39.9136962,-76.7606059,39.61381,7.745497223983285,25.41173711233332,-0.3861899999999991,-1.2670275995999971,7.755118952203942,25.44330446314878
694508189,Skyhunter A 13-2,692448003.0,39.912633,-76.7606592,50.0,29.0,2.0,15.86698,1.827694999300434,39.912719,-76.760586,51.69027,11.423538057497266,37.47880060055933,1.6902699999999982,5.545505426799994,11.547910392100746,37.88684633081981
701808265,Skyhunter A 13-2,701048113.0,39.9132831,-76.7592537,35.0,29.0,2.0,16.81981,1.7241574072477632,39.9132536,-76.759208,41.61597,5.095743369482154,16.71831867633183,6.615969999999997,21.70593901479999,8.35090770686165,27.39799204097997
706208325,Skyhunter A 13-2,704648118.0,39.9130774,-76.7583203,40.0,29.0,2.0,22.47383,1.2903897555512345,39.9130719,-76.7583372,41.46065,1.5661973950024315,5.138443061419778,1.4606500000000011,4.792158946000003,2.141605169636178,7.02626390474916
712947491,Skyhunter A 13-2,711147034.0,39.9121639,-76.7587924,45.0,29.0,2.0,16.31124,1.7779151063928922,39.9122104,-76.75881,45.42607,5.385574493994565,17.66920822287713,0.4260700000000028,1.3978674988000093,5.402402083820198,17.72441685268066
720248642,Skyhunter A 13-2,719848087.0,39.9133736,-76.7597044,40.0,29.0,2.0,17.20007,1.6860396498386343,39.9133533,-76.7597889,38.92564,7.554218183143295,24.784181183983847,-1.0743599999999986,-3.5248032623999954,7.630233401943402,25.03357495443199
724108169,Skyhunter A 13-2,722648208.0,39.9136286,-76.7605841,40.0,29.0,2.0,21.66133,1.338791293055413,39.9137528,-76.7606134,38.63616,14.03863974767668,46.05853082976756,-1.3638400000000033,-4.474540825600011,14.104732025481646,46.2753690184812
733347671,Skyhunter A 13-2,731247969.0,39.912633,-76.7606592,50.0,29.0,2.0,14.87764,1.9492338838686785,39.9127025,-76.7606009,47.42678,9.192102653730252,30.15781807046436,-2.573219999999999,-8.442323104799998,9.545481253719728,31.31719671645383
740747544,Skyhunter A 13-2,740146996.0,39.9132831,-76.7592537,35.0,29.0,2.0,18.31262,1.5836073702179154,39.9132425,-76.7592152,32.61356,5.583949267673159,18.320044115352808,-2.3864400000000003,-7.829527809600001,6.072527093191731,19.92298978842716
745208162,Skyhunter A 13-2,743448089.0,39.9130774,-76.7583203,40.0,29.0,2.0,22.61697,1.2822230387182725,39.9131159,-76.7582428,42.83005,7.8773314469641,25.8442641044577,2.83005,9.284941242,8.37027680114759,27.46153894027706
752708188,Skyhunter A 13-2,750848119.0,39.9121639,-76.7587924,45.0,29.0,2.0,15.39729,1.8834483211006607,39.9122318,-76.7588198,45.79202,7.905765282807359,25.9375509704457,0.7920200000000008,2.5984908968000027,7.945339538826653,26.06738777256404
759848732,Skyhunter A 13-2,754267161.0,39.9133736,-76.7597044,40.0,29.0,2.0,15.74413,1.841956335472332,39.9129689,-76.7601963,30.73424,61.5408786949673,201.9057764575965,-9.26576,-30.3994760384,62.23450858588248,204.18146514890668
763808287,Skyhunter A 13-2,762546966.0,39.91353,-76.7609596,30.0,29.0,2.0,18.63913,1.5558666096539913,39.9135395,-76.7609506,27.18714,1.3061548580781217,4.285285104577024,-2.8128600000000006,-9.228543602400002,3.101325828235576,10.174953830308407
782048986,Skyhunter A 13-2,782048192.0,39.9130115,-76.7588353,30.0,29.0,2.0,19.58498,1.480726556779736,39.9130009,-76.7588386,29.95685,1.2121466685569031,3.976859276068231,-0.0431500000000006,-0.1415682460000022,1.2129144522981,3.979378251677698
786367645,Skyhunter A 13-2,784847999.0,39.9128223,-76.7579985,30.0,29.0,2.0,19.57775,1.481273384326595,39.9127747,-76.7580699,29.39511,8.070622545305438,26.478421271539894,-0.604890000000001,-1.9845473076000035,8.093258934501751,26.55268764267073
793387500,Skyhunter A 13-2,792848100.0,39.912781,-76.7589641,30.0,29.0,2.0,18.00919,1.610288969131871,39.9126,-76.7590759,29.37623,22.27711415574936,73.08764720674873,-0.6237700000000004,-2.0464895668000014,22.28584537595979,73.11629294326391
799648960,Skyhunter A 13-2,799648141.0,39.9132419,-76.7605197,30.0,29.0,2.0,14.37913,2.016811865530112,39.9132346,-76.7605202,30.24808,0.8130720102409161,2.667559174078807,0.2480800000000016,0.8139107872000053,0.8500763378880777,2.788964452396721
802147819,Skyhunter A 13-2,800848088.0,39.9133983,-76.761142,30.0,29.0,2.0,16.03903,1.808089391939537,39.9133886,-76.7611412,32.08478,1.0810520752636432,3.546758890607971,2.084780000000002,6.839829615200006,2.348399718495946,7.70472373243024
811208260,Skyhunter A 13-2,810146971.0,39.9129375,-76.7606914,30.0,29.0,2.0,17.2078,1.6852822557212428,39.9127833,-76.7607253,30.25949,17.393234220883617,57.064418561243805,0.2594899999999995,0.8513451715999986,17.395169781367954,57.07076882550324
819608626,Skyhunter A 13-2,819547018.0,39.9125754,-76.7590284,30.0,29.0,2.0,16.18032,1.7923007703185103,39.9125821,-76.7590287,29.55322,0.7456558705059972,2.446377606190896,-0.4467800000000004,-1.4658136952000014,0.8692612067842765,2.8519069376661257
823347565,Skyhunter A 13-2,821747025.0,39.9124684,-76.7582666,30.0,29.0,2.0,20.41194,1.4207370783962718,39.9124225,-76.7583239,26.43951,7.068312294069384,23.1900017068746,-3.560490000000001,-11.681398011600004,7.914425293512625,25.965963079967963
830108234,Skyhunter A 13-2,829746986.0,39.9122545,-76.7592322,30.0,29.0,2.0,17.71268,1.6372451825471923,39.912089,-76.7592594,30.23756,18.553648333229585,60.87155159759296,0.2375599999999984,0.7793963503999949,18.555169124175425,60.8765410693597
837248722,Skyhunter A 13-2,835947016.0,39.9127729,-76.7608953,30.0,29.0,2.0,15.26197,1.900147883923242,39.9127757,-76.760889,30.76108,0.6211823155921445,2.0379997882873315,0.7610799999999998,2.4969817072,0.9824002420624796,3.2230980101682656
854587494,Skyhunter A 13-2,853048156.0,39.9129951,-76.7586315,20.0,29.0,2.0,15.85447,1.8291371455494887,39.913008,-76.7586428,17.87851,1.7286035707743332,5.671271739139264,-2.121490000000001,-6.960269251600004,2.7365653884009022,8.978233188881216
867508071,Skyhunter A 13-2,867048020.0,39.9135464,-76.7604446,10.0,29.0,2.0,20.70933,1.4003350180812222,39.9136327,-76.7604411,10.09455,9.603476413932354,31.507469557885823,0.0945499999999999,0.3102034219999997,9.603941843610624,31.50899655819148
871248623,Skyhunter A 13-2,869448102.0,39.9133448,-76.761083,7.0,29.0,2.0,17.29836,1.676459502519314,39.9133529,-76.7611096,8.890027,2.4416064346047963,8.0105200549088,1.890027,6.20087618268,3.0876599622096577,10.130118310415932
418581871,Skyhunter A 13-1,416901991.0,39.9123902,-76.7592135,20.0,29.0,2.0,19.65674,1.4753209331761017,39.9124605,-76.7592254,27.01601,7.884844179782295,25.868912178796943,7.016010000000001,23.018406248400005,10.554390747908982,34.62726734136971
423225138,Skyhunter A 13-1,422201973.0,39.9131288,-76.758956,20.0,29.0,2.0,18.95554,1.529895745518197,39.9131606,-76.7587116,27.82363,21.148275262491435,69.38410741219239,7.823630000000001,25.668078249200004,22.54902953466085,73.9797580584967
433002815,Skyhunter A 13-1,432201981.0,39.9134724,-76.7602327,8.0,29.0,2.0,14.33391,2.023174416471152,39.9134815,-76.760236,17.90969,1.0505839147606266,3.446797730903254,9.90969,32.51210733960001,9.96522365318781,32.694304370324694
437702573,Skyhunter A 13-1,435502085.0,39.9133201,-76.7609489,8.0,29.0,2.0,15.63164,1.8552116092745223,39.9133031,-76.7608744,11.39534,6.631075483235915,21.75549768841972,3.395339999999999,11.139567285599997,7.449798371766341,24.44159649002588
808945187,Skyhunter A 12,807822387.0,39.9130609,-76.7592108,20.0,29.0,2.0,21.89936,1.324239612481826,39.9128664,-76.7592456,25.49272,21.83629161340108,71.64137897691077,5.492719999999999,18.0207354848,22.516518479194115,73.87309448727922
813002137,Skyhunter A 12,811422367.0,39.9123532,-76.7588246,30.0,29.0,2.0,22.34461,1.2978521442083797,39.9123607,-76.7588056,38.90654,1.823016945454684,5.981026915325545,8.90654,29.2209326936,9.091196046451474,29.826759637039853
1055499516,Skyhunter 10,1054218377.0,40.8015429,-77.893281,40.0,19.0,1.3103448275862069,14.79065,1.2845953355667263,40.8015466,-77.8932764,39.65426,0.5651238956182196,1.85408108170008,-0.3457399999999992,-1.1343176215999975,0.6624961622520631,2.1735439089630586
1063242655,Skyhunter 10,1061618453.0,40.8006332,-77.8925353,65.0,27.0,1.862068965517241,18.73251,1.4413444861366682,40.8006169,-77.8925467,58.47741,2.051398165085028,6.730309155937561,-6.522590000000001,-21.3995741756,6.837573746572261,22.432985450704138
1068299513,Skyhunter 10,1066518240.0,40.7999064,-77.8924978,65.0,29.0,2.0,14.53926,1.994599450040786,40.7999603,-77.8925676,65.98189,8.395265891389949,27.5435241471078,0.981890000000007,3.2214239876000232,8.45249060095517,27.73126926323776
1075099028,Skyhunter 10,1074619117.0,40.8000688,-77.8936136,65.0,7.0,0.4827586206896552,12.38334,0.5652756041584903,40.8000483,-77.8936245,65.80265,2.457908252381614,8.064003710743695,0.8026499999999999,2.633366226,2.5856449871600007,8.483087499674017
1278141627,Skyhunter 10,1276918207.0,40.8015429,-77.893281,40.0,19.0,1.3103448275862069,15.19886,1.2500937570317774,40.8015551,-77.893281,38.70303,1.3569613794187234,4.451973172052124,-1.2969700000000015,-4.255151054800006,1.877092263617846,6.158439382167974
1287542213,Skyhunter 10,1285918805.0,40.800418,-77.8924227,65.0,27.0,1.862068965517241,19.04919,1.417383101328718,40.800399,-77.8924553,58.99428,3.464121366988292,11.365227945669869,-6.005719999999997,-19.703806404799987,6.933167354364438,22.746612782893024
1292799696,Skyhunter 10,1291018382.0,40.7996708,-77.8925514,65.0,29.0,2.0,15.13834,1.9156657863411708,40.7997333,-77.8926075,65.14292,8.404582291017133,27.57408976366065,0.1429200000000037,0.4688976528000121,8.405797381145872,27.578076279958623
1299641544,Skyhunter 10,1299218345.0,40.8000688,-77.8936136,65.0,7.0,0.4827586206896552,13.05398,0.5362349260532038,40.8000487,-77.8936319,65.73512,2.715188650490546,8.908099532075402,0.7351199999999949,2.411811100799983,2.8129434445350414,9.228817370568343
1590098899,Skyhunter 10,1588818306.0,40.8015429,-77.893281,40.0,19.0,1.3103448275862069,14.62595,1.2990609157012023,40.801568,-77.8932708,39.54319,2.920886020637216,9.582959691947403,-0.4568099999999973,-1.4987205203999912,2.95639146962203,9.69944738919474
1599442401,Skyhunter 10,1597918224.0,40.800418,-77.8924227,65.0,27.0,1.862068965517241,18.60004,1.451609781484341,40.8003985,-77.8924407,58.86716,2.645955621959436,8.680957042749395,-6.132840000000002,-20.120866785600004,6.679281968818112,21.913655454577217
1604899495,Skyhunter 10,1603118229.0,40.7996302,-77.8923905,65.0,29.0,2.0,15.0765,1.923523364176036,40.7996816,-77.8924599,65.87548,8.174918900831486,26.820600926603973,0.875479999999996,2.872309803199987,8.221664324549614,26.97396518255536
1611542023,Skyhunter 10,1611118840.0,40.7998414,-77.8934848,65.0,7.0,0.4827586206896552,13.28432,0.5269370204873114,40.7998185,-77.8934926,65.56565,2.630389008334149,8.629885474103007,0.5656500000000051,1.8558071460000167,2.690521558669454,8.827170750545093
1798799646,Skyhunter 10,1796718201.0,40.8015429,-77.893281,40.0,19.0,1.3103448275862069,13.61911,1.3950985049683864,40.8016314,-77.8930727,38.53645,20.11158550751405,65.9828941964724,-1.463549999999998,-4.8016733819999935,20.164767547099306,66.15737595922528
1808041697,Skyhunter 10,1806518293.0,40.800418,-77.8924227,65.0,27.0,1.862068965517241,17.99965,1.5000291672338073,40.8003974,-77.892452,59.01099,3.3668792007523445,11.046191956996324,-5.98901,-19.6489835684,6.870525186079937,22.541093851498506
1813541977,Skyhunter 10,1811718169.0,40.7996302,-77.8923905,65.0,29.0,2.0,14.4089,2.012644962488462,40.7996837,-77.8924596,66.23705,8.322259869428056,27.304003070014343,1.2370499999999964,4.058563121999988,8.413697286971564,27.603994606987783
1820298991,Skyhunter 10,1819818890.0,40.7998414,-77.8934848,65.0,7.0,0.4827586206896552,13.58189,0.5153921876852191,40.7998213,-77.8934957,65.6886,2.416693783654469,7.928785633164927,0.6885999999999939,2.25918642399998,2.512882568675692,8.244365646613957
1966999621,Skyhunter 10,1965118228.0,40.8008606,-77.8928626,40.0,29.0,2.0,14.69022,1.9741024981246027,40.8008864,-77.8929401,37.57685,7.128367791021248,23.38703418349415,-2.42315,-7.949967445999999,7.528962962225884,24.701322844989168
1973841530,Skyhunter 10,1972118194.0,40.8003977,-77.8938979,40.0,29.0,2.0,14.79131,1.960610655851308,40.8004495,-77.8938814,38.42086,5.926651135844857,19.44439411252524,-1.5791400000000024,-5.180905677600008,6.133422928969691,20.12277928228092
4481303987,Skyhunter 8-6,4479580700.0,40.8008606,-77.8928626,40.0,26.0,1.793103448275862,15.08892,1.7231186857641236,40.800842,-77.8927678,37.86303,8.245597385022675,27.0524857246778,-2.136969999999998,-7.011056654799994,8.518011329928646,27.9462322916831
4488404816,Skyhunter 8-6,4486780682.0,40.8003977,-77.8938979,40.0,26.0,1.793103448275862,14.72315,1.7659264491633924,40.8003719,-77.8939009,40.40469,2.8807350319876868,9.451230722346482,0.4046900000000022,1.327723139600007,2.9090218838333097,9.544035357355677
4495103836,Skyhunter 8-6,4493180689.0,40.8010393,-77.8945041,40.0,26.0,1.793103448275862,14.85439,1.7503243148995011,40.80104,-77.8945095,41.36317,0.4612792185127808,1.513383311265472,1.3631699999999969,4.472342662799989,1.4391007491943546,4.721459301986807
4502804708,Skyhunter 8-6,4501780629.0,40.8015713,-77.8935385,40.0,15.0,1.0344827586206895,15.26649,0.98254412114376,40.8015982,-77.8935506,39.83093,3.160678099804421,10.369679136962338,-0.1690699999999978,-0.5546916187999928,3.1651967893771293,10.384504234460062
4510303973,Skyhunter 8-6,4508580667.0,40.8008606,-77.8928626,40.0,26.0,1.793103448275862,14.99122,1.7343485053251169,40.8008537,-77.892828,39.19106,3.012601291410605,9.883862820911569,-0.8089399999999998,-2.6540027095999994,3.1193189103727184,10.23398625390723
4517261320,Skyhunter 8-6,4515580702.0,40.8003977,-77.8938979,40.0,26.0,1.793103448275862,14.26917,1.822110185806182,40.8003636,-77.8939055,39.51236,3.846419366927456,12.619486515790271,-0.4876399999999989,-1.5998688175999969,3.8772070767337934,12.720496065631298
4619161906,Skyhunter 8-6,4617380663.0,40.8008606,-77.8928626,40.0,29.0,2.0,14.75323,1.965671246228792,40.800867,-77.8929067,38.00637,3.780694251035877,12.403852926568543,-1.9936300000000031,-6.54078104920001,4.274132613374992,14.02274524326521
4625503660,Skyhunter 8-6,4623780726.0,40.8003977,-77.8938979,40.0,29.0,2.0,14.56672,1.990839392807715,40.800422,-77.8938901,38.66663,2.781444634849764,9.1254748158005,-1.3333700000000022,-4.374573630800007,3.084527486282873,10.119841158096303
4631603659,Skyhunter 8-6,4629680488.0,40.8010393,-77.8945041,40.0,29.0,2.0,14.9091,1.945120765170265,40.801029,-77.8944294,38.69802,6.392964288341579,20.974292955762586,-1.3019800000000004,-4.271588063200001,6.524196832745832,21.40484593674584
4639003616,Skyhunter 8-6,4637880498.0,40.8015713,-77.8935385,40.0,15.0,1.0344827586206895,15.00748,0.999501581877837,40.8015751,-77.8935375,39.76596,0.4309646087469428,1.41392592696132,-0.2340400000000002,-0.7678477936000008,0.4904133109861575,1.608967607215825
4645903675,Skyhunter 8-6,4644080491.0,40.8008606,-77.8928626,40.0,29.0,2.0,14.68535,1.974757155941125,40.8008677,-77.8929154,40.28218,4.515181913530119,14.813589429186155,0.2821799999999967,0.9257874311999894,4.523990855944507,14.842490159816975
4652261290,Skyhunter 8-6,4650580668.0,40.8003977,-77.8938979,40.0,29.0,2.0,15.02566,1.9300316924514465,40.8004251,-77.8938908,40.41542,3.105679027733864,10.18923598135037,0.4154199999999974,1.3629265527999916,3.133339432571256,10.279985343957078
4658103883,Skyhunter 8-6,4656280513.0,40.8010393,-77.8945041,40.0,29.0,2.0,14.67136,1.9766402024079568,40.8010183,-77.8944061,39.69185,8.57548616930933,28.134798043716824,-0.3081499999999977,-1.0109908459999926,8.581020886964186,28.15295656678758
4665361254,Skyhunter 8-6,4664280445.0,40.8015713,-77.8935385,40.0,15.0,1.0344827586206895,14.65932,1.023239822856722,40.8015692,-77.893535,39.86229,0.3760277316936258,1.2336868232497151,-0.1377099999999984,-0.4518044763999949,0.400450869773875,1.31381523158892
4671961615,Skyhunter 8-6,4670280497.0,40.8008606,-77.8928626,40.0,29.0,2.0,15.20349,1.9074567747273816,40.800868,-77.8929468,39.39024,7.13698129367526,23.41529370754154,-0.6097600000000014,-2.0005249984000044,7.162981868179661,23.50059743239856
4678004784,Skyhunter 8-6,4676380733.0,40.8003977,-77.8938979,40.0,29.0,2.0,15.68177,1.8492810441678456,40.8004468,-77.89388,39.72817,5.665359257204016,18.587137265405225,-0.2718300000000013,-0.8918307372000044,5.671876855335211,18.60852046205797
4683661189,Skyhunter 8-6,4681880502.0,40.8010393,-77.8945041,40.0,29.0,2.0,15.03897,1.9283235487536712,40.8010235,-77.8944121,40.02382,7.942925873276014,26.05946892207888,0.0238200000000006,0.078149608800002,7.94296159003413,26.05958610304757
4690861196,Skyhunter 8-6,4689780683.0,40.8015713,-77.8935385,40.0,15.0,1.0344827586206895,14.78715,1.0143942544709426,40.8015618,-77.8935335,39.76852,1.1374238857884131,3.7317057814500574,-0.2314799999999977,-0.7594488431999924,1.160739456709391,3.808200439150438
4697761545,Skyhunter 8-6,4695980585.0,40.8008606,-77.8928626,40.0,29.0,2.0,15.43316,1.8790707800605968,40.8008648,-77.8929077,39.4426,3.825898201873111,12.552159856633375,-0.5574000000000012,-1.828740216000004,3.866289152546136,12.68467610323946
4704161820,Skyhunter 8-6,4702480565.0,40.8003977,-77.8938979,40.0,29.0,2.0,15.15809,1.91316979909738,40.8004295,-77.8938903,38.69593,3.594415628275664,11.792702569871928,-1.304070000000003,-4.27844501880001,3.823666077691976,12.544836614334944
4709961391,Skyhunter 8-6,4708080471.0,40.8010393,-77.8945041,40.0,29.0,2.0,14.23389,2.037391043488463,40.8010241,-77.8944346,39.09126,6.090988231927555,19.9835578308372,-0.9087400000000015,-2.9814305416000053,6.158404503528488,20.20473983135641
4717205298,Skyhunter 8-6,4716180650.0,40.8015713,-77.8935385,40.0,15.0,1.0344827586206895,14.74207,1.0174961860851293,40.8015722,-77.8935395,40.17542,0.1308039938214141,0.4291469750890483,0.1754200000000025,0.5755249528000085,0.2188192432114539,0.7179109258978666
4724261300,Skyhunter 8-6,4722480577.0,40.8008606,-77.8928626,40.0,29.0,2.0,15.14188,1.9152179253831096,40.8008701,-77.8929245,39.24779,5.31781082459758,17.446886465772725,-0.752209999999998,-2.467880656399993,5.37074779246868,17.620564187442945
4730561327,Skyhunter 8-6,4728880529.0,40.8003977,-77.8938979,40.0,29.0,2.0,14.73061,1.9686896876639868,40.8004306,-77.8938844,38.82021,3.831816937045238,12.5715782797355,-1.179789999999997,-3.87070222359999,4.009329804733797,13.153969596562831
4736361203,Skyhunter 8-6,4734580647.0,40.8010393,-77.8945041,40.0,29.0,2.0,15.28439,1.8973606404966112,40.8010303,-77.8944453,39.55021,5.050943479332081,16.571337404731864,-0.4497900000000001,-1.4756890236000004,5.0709309870582215,16.636913219580094
4743561269,Skyhunter 8-6,4742480516.0,40.8015713,-77.8935385,40.0,15.0,1.0344827586206895,15.32436,0.978833700069693,40.8015744,-77.8935366,39.28884,0.3801042371228658,1.247061185322183,-0.7111599999999996,-2.3332021743999984,0.8063670235561193,2.6455611855638583
4750461447,Skyhunter 8-6,4748680517.0,40.8008606,-77.8928626,40.0,29.0,2.0,14.14021,2.0508889189057307,40.8008745,-77.892929,38.86504,5.800494898037962,19.030495681278868,-1.1349599999999995,-3.7236221663999984,5.910488580799766,19.391367355431104
4756761262,Skyhunter 8-6,4755080537.0,40.8003977,-77.8938979,40.0,29.0,2.0,15.41739,1.880992826931148,40.8004346,-77.8938894,38.29295,4.166182666970242,13.668578741102648,-1.7070500000000024,-5.600557922000008,4.502343580521514,14.771468912718204
4762561306,Skyhunter 8-6,4761280527.0,40.8010393,-77.8945041,40.0,20.0,1.3793103448275863,14.60243,1.3696350538917152,40.8010392,-77.8945083,39.31568,0.3538000642863084,1.160761402913092,-0.6843199999999996,-2.245144428799999,0.7703689686695561,2.5274573271698264
4770004804,Skyhunter 8-6,4768980712.0,40.8015713,-77.8935385,40.0,15.0,1.0344827586206895,15.26686,0.9825203086947808,40.8015741,-77.893543,39.42961,0.4904506720789051,1.609090182983355,-0.5703900000000033,-1.8713583276000108,0.7522543544856709,2.4680261763707687
4777103741,Skyhunter 8-6,4775780559.0,40.8008606,-77.8928626,40.0,20.0,1.3793103448275863,14.77303,1.3538184109827165,40.8008635,-77.8928626,40.35991,0.3225563932740464,1.0582559173092223,0.3599099999999993,1.1808071243999976,0.4832989084841396,1.5856263909111048
4783903774,Skyhunter 8-6,4782680485.0,40.8003977,-77.8938979,40.0,20.0,1.3793103448275863,14.90056,1.3422314329125884,40.8003908,-77.8938916,38.97216,0.932934759262634,3.06080967557922,-1.0278399999999976,-3.3721785855999924,1.3881002595779686,4.554134855633782
4790161690,Skyhunter 8-6,4788780724.0,40.8010393,-77.8945041,40.0,20.0,1.3793103448275863,14.79807,1.3515275978556665,40.8010379,-77.8945008,39.10324,0.318508179167122,1.0449743745386606,-0.8967600000000004,-2.9421260784000016,0.9516438187664312,3.1221911063616585
4797461203,Skyhunter 8-6,4796480511.0,40.8015713,-77.8935385,40.0,15.0,1.0344827586206895,15.38391,0.9750447057997608,40.8015749,-77.8935388,39.82229,0.4012107208322288,1.3163081813352098,-0.1777099999999976,-0.5830380763999921,0.4388062062126239,1.439652953590625
4804604715,Skyhunter 8-6,4803280529.0,40.8008606,-77.8928626,40.0,20.0,1.3793103448275863,14.71582,1.3590815870267507,40.8008576,-77.8928659,40.47638,0.4342140308365015,1.4245867609296277,0.4763799999999989,1.5629265591999963,0.6445771706904312,2.114754564687994
4811461193,Skyhunter 8-6,4810180662.0,40.8003977,-77.8938979,40.0,20.0,1.3793103448275863,14.48316,1.3809141099041922,40.8003938,-77.8939009,39.90512,0.501966247688944,1.646870944067795,-0.0948800000000034,-0.3112860992000111,0.510854507877653,1.6760319036253188
4817661074,Skyhunter 8-6,4816280543.0,40.8010393,-77.8945041,40.0,20.0,1.3793103448275863,14.41849,1.3871078039378604,40.8010416,-77.8945032,38.92978,0.266807609108274,0.8753530762667897,-1.070219999999999,-3.511220584799997,1.1029764950705303,3.618689404087199
4824804668,Skyhunter 8-6,4823780671.0,40.8015713,-77.8935385,40.0,15.0,1.0344827586206895,14.60997,1.0266961533801915,40.8015739,-77.893544,39.45755,0.5459580397120116,1.7912009750087563,-0.5424500000000023,-1.7796916580000075,0.7696247031028727,2.525015510928029
4831903719,Skyhunter 8-6,4830580679.0,40.8008606,-77.8928626,40.0,20.0,1.3793103448275863,14.51865,1.3775385452504194,40.8008621,-77.8928663,39.83003,0.353390696405375,1.1594183323946108,-0.1699699999999993,-0.5576443747999976,0.39214128220053,1.286552804294787
4838803715,Skyhunter 8-6,4837580623.0,40.8003977,-77.8938979,40.0,20.0,1.3793103448275863,15.1515,1.32000132000132,40.8003925,-77.8938946,39.18215,0.6416550027680812,2.1051673992816315,-0.81785,-2.683234994,1.0395190065974294,3.4104955376051103
4845061254,Skyhunter 8-6,4843780661.0,40.8010393,-77.8945041,40.0,20.0,1.3793103448275863,14.71315,1.3593282199936791,40.8010373,-77.8945062,39.16472,0.2841617339392641,0.9322891831772953,-0.8352799999999974,-2.7404200351999912,0.8822927912180654,2.894661481139877
4852261317,Skyhunter 8-6,4851280482.0,40.8015713,-77.8935385,40.0,15.0,1.0344827586206895,14.90996,1.0060389162680516,40.8015744,-77.8935365,40.04466,0.3837237480741522,1.2589362216316016,0.0446600000000003,0.1465223144000012,0.3863139014274214,1.2674341003591412
4859361422,Skyhunter 8-6,4858480527.0,40.8008606,-77.8928626,40.0,14.0,0.9655172413793104,15.33796,0.9127680604200298,40.8008636,-77.8928338,39.20586,2.447715560113564,8.030563118242986,-0.7941399999999987,-2.605446277599996,2.573318830386561,8.442647351485444
4866804816,Skyhunter 8-6,4865980676.0,40.8003977,-77.8938979,40.0,14.0,0.9655172413793104,14.81214,0.9451706505609588,40.8003813,-77.8938907,39.66749,1.922209145374672,6.306460652511037,-0.3325099999999992,-1.0909121083999973,1.9507564939433173,6.400119935588993
4873404724,Skyhunter 8-6,4872480504.0,40.8010393,-77.8945041,40.0,14.0,0.9655172413793104,14.64258,0.9561156572134144,40.8010308,-77.8945348,39.67155,2.7523048999991104,9.02987200811308,-0.3284499999999966,-1.0775918979999888,2.771833628675991,9.093942642305338
4880903760,Skyhunter 8-6,4879980578.0,40.8015713,-77.8935385,40.0,15.0,1.0344827586206895,14.99289,1.0004742247825469,40.8015781,-77.8935423,40.06541,0.8212265535439898,2.6943129259292635,0.0654099999999999,0.2145997443999999,0.8238273607654333,2.702845758293664
4888004745,Skyhunter 8-6,4887080471.0,40.8008606,-77.8928626,40.0,14.0,0.9655172413793104,14.67091,0.95426936706721,40.8008655,-77.8928367,40.03206,2.24776848163065,7.374568745273101,0.0320600000000013,0.1051837304000043,2.24799710645102,7.375318826728764
4895503679,Skyhunter 8-6,4894480564.0,40.8003977,-77.8938979,40.0,16.0,1.103448275862069,15.16355,1.055161884914812,40.8003861,-77.8938966,39.29264,1.294860128728515,4.248228904737662,-0.7073600000000013,-2.3207349824000043,1.475473118213554,4.840791225159757
4901961229,Skyhunter 8-6,4900880482.0,40.8010393,-77.8945041,40.0,16.0,1.103448275862069,15.20611,1.0522086187723223,40.8010384,-77.8945198,39.16843,1.3256695445128008,4.3493096684193775,-0.8315699999999993,-2.7282481187999976,1.5648988485358328,5.134182738230302
4909205279,Skyhunter 8-6,4908280596.0,40.8015713,-77.8935385,40.0,15.0,1.0344827586206895,15.43756,0.971656142551025,40.8015776,-77.893544,39.94031,0.8399149092581736,2.7556264308905862,-0.0596900000000033,-0.195833339600011,0.8420332243410389,2.762576283747054
4916161783,Skyhunter 8-6,4914380635.0,40.8008606,-77.8928626,40.0,29.0,2.0,14.9905,1.9345585537507088,40.8008756,-77.8929283,39.94163,5.777845331501808,18.9561860774044,-0.0583699999999964,-0.1915026307999884,5.778140161994796,18.95715336907901
4922561434,Skyhunter 8-6,4920880563.0,40.8003977,-77.8938979,40.0,29.0,2.0,14.80072,1.9593641390418843,40.8004398,-77.8938878,39.53844,4.759220700190712,15.614241642013694,-0.4615599999999986,-1.5143045103999957,4.78154988541621,15.687500126068915
4928261318,Skyhunter 8-6,4926480482.0,40.8010393,-77.8945041,40.0,29.0,2.0,14.22053,2.039305145448165,40.8010278,-77.894433,38.80381,6.121497132915701,20.08365265355515,-1.1961900000000014,-3.9245079996000047,6.237274858814156,20.463500847791835
4934903726,Skyhunter 8-6,4933980751.0,40.8015713,-77.8935385,40.0,15.0,1.0344827586206895,14.8807,1.0080170959699477,40.8015718,-77.8935446,39.55433,0.5165965526572109,1.694870633819884,-0.4456699999999998,-1.4621719627999994,0.6822710217481864,2.23842205899232
264293802,Skyhunter 4,261970341.0,40.8005886,-77.8935599,30.0,28.0,2.0,16.26465,1.721524902165125,40.8005175,-77.8934149,26.97281,14.546095467344731,47.72341185308328,-3.027190000000001,-9.931726039600004,14.85775126461629,48.745904659003706
273050622,Skyhunter 4,272070431.0,40.8010434,-77.8943539,40.0,14.0,1.0,14.73271,0.9502664479243804,40.8010195,-77.8944059,43.41523,5.122049880545927,16.804626130090302,3.415230000000001,11.204823193200005,6.156231877674895,20.1976117935509
1015350528,Skyhunter 4,1014670546.0,40.8015307,-77.8934741,40.0,15.0,1.0,15.22225,0.9853996616794496,40.8016128,-77.8934888,41.12905,9.215176437835876,30.23351946430945,1.1290499999999994,3.7042324019999984,9.28408480588935,30.459596794554013
1022694027,Skyhunter 4,1021970267.0,40.8008322,-77.892766,40.0,16.0,1.0666666666666669,14.27799,1.1206059116164109,40.8008591,-77.8926301,39.63675,11.827045482609265,38.802643901163776,-0.3632500000000007,-1.1917651300000025,11.832622507720265,38.82094122822895
1032750472,Skyhunter 4,1031370332.0,40.8004099,-77.8938174,40.0,17.0,1.1333333333333333,15.82285,1.074395573490237,40.8003893,-77.8938174,37.78081,2.2912626568699044,7.517266175165057,-2.2191899999999976,-7.280807319599992,3.1897788040656554,10.465153891530765
1042050438,Skyhunter 4,1040970341.0,40.8011246,-77.8946114,40.0,14.0,0.9333333333333332,15.33547,0.9129162653638916,40.8011191,-77.8946277,40.25547,1.5025697221089729,4.929690847084003,0.2554700000000025,0.8381561948000082,1.524132766755783,5.000435746483042
1049850515,Skyhunter 4,1049270519.0,40.8015307,-77.8934741,40.0,15.0,1.0,14.94639,1.0035868192921502,40.801627,-77.8934936,39.6801,10.836196767630712,35.55182780311355,-0.3198999999999969,-1.04954071599999,10.840917691635257,35.56731639942461
1057392660,Skyhunter 4,1056570347.0,40.8008322,-77.892766,40.0,16.0,1.0666666666666669,15.0309,1.0644738505345654,40.8008563,-77.8926524,40.91817,9.93326572818929,32.58945553167255,0.9181700000000036,3.012368862800012,9.975610466318336,32.72838184231585
1149092623,Skyhunter 4,1147570300.0,40.8014657,-77.8934097,40.0,30.0,2.0,14.64025,2.0491453356329297,40.8015532,-77.893385,39.43274,9.95201763359464,32.65097753300264,-0.5672599999999974,-1.861089298399992,9.968171291013144,32.70397509840756
1156892798,Skyhunter 4,1154970344.0,40.8006535,-77.8925299,40.0,30.0,2.0,15.55501,1.928639068698767,40.8006555,-77.8925483,40.08191,1.565113562825064,5.134887181458983,0.0819100000000006,0.2687336044000019,1.5672554714018276,5.141914440793972
1165750899,Skyhunter 4,1163470560.0,40.8001663,-77.8936243,40.0,30.0,2.0,14.85116,2.020044225501577,40.8001928,-77.8936152,39.80454,3.0454562928846705,9.991654823947744,-0.195459999999997,-0.6412729863999904,3.0517222421889643,10.01221240106324
1175692955,Skyhunter 4,1173770371.0,40.8010596,-77.8945255,40.0,30.0,2.0,15.95871,1.879851190979722,40.8010434,-77.8944276,41.3252,8.437477283087002,27.68201296944316,1.3252000000000024,4.347769168000008,8.540912008831915,28.021365755056102
1182550508,Skyhunter 4,1180970312.0,40.8014657,-77.8934097,40.0,30.0,2.0,14.51305,2.067105122631012,40.8015018,-77.8933999,39.92667,4.099173550904604,13.448732552749862,-0.0733299999999985,-0.2405839971999953,4.099829397589107,13.450884280786246
1190150537,Skyhunter 4,1188270537.0,40.8006535,-77.8925299,40.0,30.0,2.0,16.2662,1.8443152057641,40.8006531,-77.892542,39.2027,1.0197542432395843,3.3456505113901587,-0.7972999999999999,-2.6158137319999994,1.29444428485939,4.246864587538081
568756642,Skyhunter 2,567677228.0,39.9123491,-76.7592216,20.0,28.0,2.0,18.73761,1.494320780505091,39.9123899,-76.7589611,21.14734,22.682772065870022,74.41854590458901,1.1473399999999998,3.7642389655999993,22.711770905585794,74.5136864578821
579299116,Skyhunter 2,577977246.0,39.9125425,-76.7606646,30.0,28.0,2.0,17.61876,1.5892151320524257,39.9124658,-76.7607947,28.98932,13.999030887896453,45.92858049824619,-1.010680000000001,-3.315879371200002,14.03546721212653,46.048122248233206
154546204,Skyhunter 3,152666201.0,39.9123491,-76.7592216,20.0,28.0,2.0,23.72858,1.1800116146857502,39.9123684,-76.759222,31.86378,2.1469396390456867,7.043765445366651,11.863779999999998,38.9231639752,12.05647650443966,39.55537037482581
162846372,Skyhunter 3,161566233.0,39.9125425,-76.7606646,30.0,28.0,2.0,18.59008,1.5061796398939649,39.9124503,-76.7607789,43.4321,14.151138962939164,46.42762275516933,13.432099999999998,44.068570964,19.510921156070896,64.01221056568365
520589534,Skyhunter 3,517366349.0,39.9121434,-76.7591572,40.0,28.0,2.0,14.70227,1.9044678134737016,39.9121445,-76.7591617,35.53759,0.4029366525945687,1.321970687298365,-4.462409999999998,-14.640453224399996,4.480564803024738,14.70001622835568
533088448,Skyhunter 3,531666142.0,39.9128552,-76.7609972,40.0,28.0,2.0,12.54192,2.232513044254788,39.9128589,-76.760992,42.64392,0.605118467190314,1.98529687189667,2.6439200000000014,8.674278492800005,2.712283415451778,8.898567920750812
540446650,Skyhunter 3,537766397.0,39.9135094,-76.7607182,40.0,28.0,2.0,16.03403,1.7462858682439784,39.9135269,-76.7607246,46.85788,2.021589443514844,6.63251150986124,6.8578800000000015,22.49960701920001,7.149639289679633,23.456822567152525
575688987,Skyhunter 3,571566358.0,39.9129951,-76.758728,40.0,28.0,2.0,13.85541,2.020871269778376,39.9129658,-76.7588168,41.93545,8.247001848235623,27.05709354376536,1.935450000000003,6.34990177800001,8.4710687747947,27.792221279097443
591688908,Skyhunter 3,588866092.0,39.9121434,-76.7591572,40.0,28.0,2.0,14.54821,1.9246354018810563,39.9121857,-76.7591827,37.95406,5.1834981744893,17.006228150791472,-2.0459400000000016,-6.712401789600006,5.572658594291768,18.283001222496207
603989540,Skyhunter 3,602566403.0,39.9128552,-76.7609972,40.0,28.0,2.0,14.63122,1.9137160127453483,39.9128869,-76.7609451,42.58605,5.673454076456448,18.613695072201374,2.58605,8.484416282,6.235040958980164,20.456171779860483
612190028,Skyhunter 3,607666112.0,39.9135094,-76.7607182,40.0,28.0,2.0,14.52691,1.9274573877032348,39.9135549,-76.7606734,36.10155,6.341863808151877,20.806640456337004,-3.898449999999997,-12.79019069799999,7.444269538621409,24.423457273090666
646389583,Skyhunter 3,643266181.0,39.9129951,-76.758728,40.0,28.0,2.0,14.57283,1.9213838355350328,39.9129623,-76.7588164,41.54356,8.377712106477802,27.48593298741663,1.5435599999999994,5.064173390399998,8.518722768855946,27.948566408973345
658846172,Skyhunter 3,656066056.0,39.9121434,-76.7591572,40.0,28.0,2.0,14.68902,1.906185708781117,39.9122001,-76.7591905,37.86069,6.916889732473701,22.69320850988901,-2.139310000000002,-7.018733820400006,7.240166493064929,23.753827837107146
670046174,Skyhunter 3,668666184.0,39.9128552,-76.7609972,40.0,28.0,2.0,14.74264,1.899252779692104,39.9128596,-76.7609868,35.09092,1.0132765831240425,3.324398344976684,-4.909080000000003,-16.10590602720001,5.012563803115883,16.445419827814714
676846067,Skyhunter 3,673666178.0,39.9135094,-76.7607182,40.0,28.0,2.0,14.97291,1.870043966069388,39.9135719,-76.7607001,37.19205,7.12108029501009,23.363125075080905,-2.807949999999998,-9.212434677999994,7.654695798689912,25.11383216417381
708446670,Skyhunter 3,704966324.0,39.9129951,-76.758728,40.0,28.0,2.0,14.30659,1.9571400312723013,39.9129737,-76.7588281,36.60245,8.8653224736207,29.08570458435374,-3.3975500000000025,-11.146817942000007,9.49406596584331,31.148511383377365
725446716,Skyhunter 3,722466183.0,39.9121434,-76.7591572,40.0,28.0,2.0,14.83531,1.8873889389571232,39.9122163,-76.7591879,42.44778,8.520916535920758,27.95576380771026,2.4477800000000016,8.030774535200004,8.865531317441038,29.086389767513253
738446770,Skyhunter 3,736866172.0,39.9128552,-76.7609972,40.0,28.0,2.0,16.66733,1.6799331386610814,39.912871,-76.7609833,36.24718,2.1200498889232566,6.9555444775749775,-3.75282,-12.3124019688,4.310251672921607,14.141246098588129
746346124,Skyhunter 3,742066190.0,39.9135094,-76.7607182,40.0,28.0,2.0,16.46214,1.700872426063683,39.9136382,-76.7606038,41.77842,17.334494084063834,56.87170157075999,1.778419999999997,5.83471147279999,17.42548314529167,57.17022212239872
764789506,Skyhunter 3,762466187.0,39.9129951,-76.758728,40.0,28.0,2.0,18.82122,1.4876825200491786,39.9129674,-76.7587981,39.89885,6.727398512153131,22.071518134612475,-0.1011499999999969,-0.33185696599999,6.728158891094959,22.074012816259987
774846181,Skyhunter 3,772166422.0,39.9121434,-76.7591572,40.0,28.0,2.0,14.78654,1.8936140571086948,39.912196,-76.759202,41.49993,6.988315346100272,22.927544520099616,1.499929999999999,4.921030341199997,7.147470978006176,23.44970868348178
785688493,Skyhunter 3,784166341.0,39.9128552,-76.7609972,40.0,28.0,2.0,14.85334,1.885097897173296,39.9128803,-76.7609738,45.53701,3.43210544237677,11.260188819567402,5.537010000000002,18.166043888400008,6.514432247532572,21.372809894994763
792288470,Skyhunter 3,789266227.0,39.9135094,-76.7607182,40.0,28.0,2.0,15.95109,1.7553659342402306,39.9136012,-76.7607203,42.52466,10.212149862488834,33.50442975484787,2.524659999999997,8.28300551439999,10.519596614392146,34.513113356362325
807888413,Skyhunter 3,806266203.0,39.9129951,-76.758728,40.0,28.0,2.0,22.27814,1.2568374200000538,39.9129548,-76.7587747,33.96428,5.997101275114996,19.67552974744828,-6.035719999999998,-19.802231604799992,8.508533341439398,27.91513652792804
815088507,Skyhunter 3,813166281.0,39.9121434,-76.7591572,40.0,28.0,2.0,19.71974,1.419897016897789,39.9121449,-76.7591655,43.05682,0.7274943630031301,2.3867926059151894,3.056820000000002,10.028937328800009,3.14219613655821,10.309042772665638
824146435,Skyhunter 3,822966253.0,39.9128552,-76.7609972,40.0,28.0,2.0,16.7873,1.6679275404621352,39.9128518,-76.7610056,37.79968,0.8102895933069103,2.6584305093050435,-2.200319999999998,-7.218897868799993,2.344776605014104,7.692836876794473
832846181,Skyhunter 3,828166412.0,39.9135094,-76.7607182,40.0,28.0,2.0,16.64161,1.6825295148726596,39.9135999,-76.7606312,39.40895,12.506493338096108,41.03180360335924,-0.5910500000000027,-1.9391404820000089,12.520451897529192,41.07759940348967
864288454,Skyhunter 3,859466268.0,39.9129951,-76.758728,40.0,28.0,2.0,13.47133,2.078488167092633,39.9129704,-76.7587983,39.94968,6.596779128541694,21.64297683608473,-0.0503199999999992,-0.1650918687999975,6.59697104534826,21.643606484420385
883488870,Skyhunter 3,880866115.0,39.9121434,-76.7591572,40.0,28.0,2.0,14.4697,1.9350781287794496,39.9121755,-76.7591871,45.47327,4.38799696156917,14.396315951394596,5.473269999999999,17.956923146799998,7.015069623862636,23.01532102475349
895589566,Skyhunter 3,894166367.0,39.9128552,-76.7609972,40.0,28.0,2.0,15.41458,1.8164620768129915,39.9128673,-76.760981,39.34268,1.929092826403928,6.329044908579064,-0.6573199999999986,-2.156561748799996,2.0380060636031225,6.686371813711668
902789480,Skyhunter 3,899266201.0,39.9135094,-76.7607182,40.0,28.0,2.0,13.76062,2.0347920369867056,39.9135487,-76.7606797,37.15498,5.4676684879159305,17.938545481894103,-2.845019999999998,-9.334055416799991,6.163565323264519,20.221671655179165
