TimeUS,Log,CMDTimeUS,CMDLat,CMDLng,CMDAlt,AcceptRadius,AcceptRatio,AcceptAirspeed,AirspeedRatio,Lat,Lng,RelHomeAlt,Haversine,HaversineFt,dAlt,dAltFt,Dist,DistFt
264293802,Skyhunter 4,261970341.0,40.8005886,-77.8935599,30.0,28.0,2.0,16.26465,1.721524902165125,40.8005175,-77.8934149,26.97281,14.546095467344731,47.723411853083284,-3.027190000000001,-9.931726039600003,14.85775126461629,48.745904659003706
273050622,Skyhunter 4,272070431.0,40.8010434,-77.8943539,40.0,14.0,1.0,14.73271,0.9502664479243804,40.8010195,-77.8944059,43.41523,5.122049880545927,16.804626130090302,3.415230000000001,11.204823193200003,6.1562318776748945,20.1976117935509
1015350528,Skyhunter 4,1014670546.0,40.8015307,-77.8934741,40.0,15.0,1.0,15.22225,0.9853996616794495,40.8016128,-77.8934888,41.12905,9.215176437835876,30.233519464309452,1.1290499999999994,3.7042324019999984,9.28408480588935,30.459596794554013
1022694027,Skyhunter 4,1021970267.0,40.8008322,-77.892766,40.0,16.0,1.0666666666666667,14.27799,1.1206059116164109,40.8008591,-77.8926301,39.63675,11.827045482609263,38.802643901163776,-0.36325000000000074,-1.1917651300000025,11.832622507720263,38.820941228228946
1032750472,Skyhunter 4,1031370332.0,40.8004099,-77.8938174,40.0,17.0,1.1333333333333333,15.82285,1.074395573490237,40.8003893,-77.8938174,37.78081,2.2912626568699044,7.517266175165057,-2.2191899999999976,-7.280807319599992,3.1897788040656554,10.465153891530765
1042050438,Skyhunter 4,1040970341.0,40.8011246,-77.8946114,40.0,14.0,0.9333333333333333,15.33547,0.9129162653638916,40.8011191,-77.8946277,40.25547,1.5025697221089729,4.929690847084003,0.25547000000000253,0.8381561948000082,1.5241327667557827,5.000435746483042
1049850515,Skyhunter 4,1049270519.0,40.8015307,-77.8934741,40.0,15.0,1.0,14.94639,1.0035868192921502,40.801627,-77.8934936,39.6801,10.836196767630712,35.55182780311355,-0.31989999999999696,-1.04954071599999,10.840917691635257,35.56731639942461
1057392660,Skyhunter 4,1056570347.0,40.8008322,-77.892766,40.0,16.0,1.0666666666666667,15.0309,1.0644738505345654,40.8008563,-77.8926524,40.91817,9.93326572818929,32.58945553167255,0.9181700000000035,3.0123688628000114,9.975610466318336,32.72838184231585
1149092623,Skyhunter 4,1147570300.0,40.8014657,-77.8934097,40.0,30.0,2.0,14.64025,2.0491453356329297,40.8015532,-77.893385,39.43274,9.95201763359464,32.65097753300264,-0.5672599999999974,-1.8610892983999916,9.968171291013144,32.70397509840756
1156892798,Skyhunter 4,1154970344.0,40.8006535,-77.8925299,40.0,30.0,2.0,15.55501,1.9286390686987667,40.8006555,-77.8925483,40.08191,1.5651135628250639,5.134887181458983,0.0819100000000006,0.26873360440000194,1.5672554714018276,5.141914440793972
1165750899,Skyhunter 4,1163470560.0,40.8001663,-77.8936243,40.0,30.0,2.0,14.85116,2.020044225501577,40.8001928,-77.8936152,39.80454,3.0454562928846705,9.991654823947743,-0.19545999999999708,-0.6412729863999904,3.0517222421889643,10.012212401063241
1175692955,Skyhunter 4,1173770371.0,40.8010596,-77.8945255,40.0,30.0,2.0,15.95871,1.879851190979722,40.8010434,-77.8944276,41.3252,8.437477283087002,27.68201296944316,1.3252000000000024,4.347769168000008,8.540912008831915,28.021365755056102
1182550508,Skyhunter 4,1180970312.0,40.8014657,-77.8934097,40.0,30.0,2.0,14.51305,2.0671051226310113,40.8015018,-77.8933999,39.92667,4.099173550904604,13.448732552749862,-0.07332999999999856,-0.2405839971999953,4.099829397589107,13.450884280786246
1190150537,Skyhunter 4,1188270537.0,40.8006535,-77.8925299,40.0,30.0,2.0,16.2662,1.8443152057640997,40.8006531,-77.892542,39.2027,1.0197542432395845,3.3456505113901587,-0.7972999999999999,-2.6158137319999994,1.29444428485939,4.246864587538081
568756642,Skyhunter 2,567677228.0,39.9123491,-76.7592216,20.0,28.0,2.0,18.73761,1.494320780505091,39.9123899,-76.7589611,21.14734,22.682772065870022,74.41854590458901,1.1473399999999998,3.7642389655999993,22.711770905585794,74.5136864578821
579299116,Skyhunter 2,577977246.0,39.9125425,-76.7606646,30.0,28.0,2.0,17.61876,1.5892151320524257,39.9124658,-76.7607947,28.98932,13.999030887896453,45.92858049824619,-1.010680000000001,-3.315879371200002,14.03546721212653,46.048122248233206
154546204,Skyhunter 3,152666201.0,39.9123491,-76.7592216,20.0,28.0,2.0,23.72858,1.1800116146857502,39.9123684,-76.759222,31.86378,2.1469396390456867,7.043765445366651,11.863779999999998,38.9231639752,12.05647650443966,39.55537037482581
162846372,Skyhunter 3,161566233.0,39.9125425,-76.7606646,30.0,28.0,2.0,18.59008,1.5061796398939649,39.9124503,-76.7607789,43.4321,14.151138962939164,46.42762275516933,13.432099999999998,44.068570964,19.510921156070896,64.01221056568365
520589534,Skyhunter 3,517366349.0,39.9121434,-76.7591572,40.0,28.0,2.0,14.70227,1.9044678134737016,39.9121445,-76.7591617,35.53759,0.4029366525945687,1.321970687298365,-4.462409999999998,-14.640453224399996,4.480564803024738,14.70001622835568
533088448,Skyhunter 3,531666142.0,39.9128552,-76.7609972,40.0,28.0,2.0,12.54192,2.232513044254788,39.9128589,-76.760992,42.64392,0.605118467190314,1.98529687189667,2.6439200000000014,8.674278492800005,2.712283415451778,8.898567920750812
540446650,Skyhunter 3,537766397.0,39.9135094,-76.7607182,40.0,28.0,2.0,16.03403,1.7462858682439784,39.9135269,-76.7607246,46.85788,2.021589443514844,6.63251150986124,6.8578800000000015,22.49960701920001,7.149639289679633,23.456822567152525
575688987,Skyhunter 3,571566358.0,39.9129951,-76.758728,40.0,28.0,2.0,13.85541,2.020871269778376,39.9129658,-76.7588168,41.93545,8.247001848235623,27.05709354376536,1.935450000000003,6.34990177800001,8.4710687747947,27.792221279097443
591688908,Skyhunter 3,588866092.0,39.9121434,-76.7591572,40.0,28.0,2.0,14.54821,1.9246354018810563,39.9121857,-76.7591827,37.95406,5.1834981744893,17.006228150791472,-2.0459400000000016,-6.712401789600006,5.572658594291768,18.283001222496207
603989540,Skyhunter 3,602566403.0,39.9128552,-76.7609972,40.0,28.0,2.0,14.63122,1.9137160127453483,39.9128869,-76.7609451,42.58605,5.673454076456448,18.613695072201374,2.58605,8.484416282,6.235040958980164,20.456171779860483
612190028,Skyhunter 3,607666112.0,39.9135094,-76.7607182,40.0,28.0,2.0,14.52691,1.9274573877032348,39.9135549,-76.7606734,36.10155,6.341863808151877,20.806640456337004,-3.898449999999997,-12.79019069799999,7.444269538621409,24.423457273090666
646389583,Skyhunter 3,643266181.0,39.9129951,-76.758728,40.0,28.0,2.0,14.57283,1.9213838355350328,39.9129623,-76.7588164,41.54356,8.377712106477802,27.48593298741663,1.5435599999999994,5.064173390399998,8.518722768855946,27.948566408973345
658846172,Skyhunter 3,656066056.0,39.9121434,-76.7591572,40.0,28.0,2.0,14.68902,1.906185708781117,39.9122001,-76.7591905,37.86069,6.916889732473701,22.69320850988901,-2.139310000000002,-7.018733820400006,7.240166493064929,23.753827837107146
670046174,Skyhunter 3,668666184.0,39.9128552,-76.7609972,40.0,28.0,2.0,14.74264,1.899252779692104,39.9128596,-76.7609868,35.09092,1.0132765831240425,3.324398344976684,-4.909080000000003,-16.10590602720001,5.012563803115883,16.445419827814714
676846067,Skyhunter 3,673666178.0,39.9135094,-76.7607182,40.0,28.0,2.0,14.97291,1.870043966069388,39.9135719,-76.7607001,37.19205,7.12108029501009,23.363125075080905,-2.807949999999998,-9.212434677999994,7.654695798689912,25.11383216417381
708446670,Skyhunter 3,704966324.0,39.9129951,-76.758728,40.0,28.0,2.0,14.30659,1.9571400312723013,39.9129737,-76.7588281,36.60245,8.8653224736207,29.08570458435374,-3.3975500000000025,-11.146817942000007,9.49406596584331,31.148511383377365
725446716,Skyhunter 3,722466183.0,39.9121434,-76.7591572,40.0,28.0,2.0,14.83531,1.8873889389571232,39.9122163,-76.7591879,42.44778,8.520916535920758,27.95576380771026,2.4477800000000016,8.030774535200004,8.865531317441038,29.086389767513253
738446770,Skyhunter 3,736866172.0,39.9128552,-76.7609972,40.0,28.0,2.0,16.66733,1.6799331386610814,39.912871,-76.7609833,36.24718,2.1200498889232566,6.9555444775749775,-3.75282,-12.3124019688,4.310251672921607,14.141246098588129
746346124,Skyhunter 3,742066190.0,39.9135094,-76.7607182,40.0,28.0,2.0,16.46214,1.700872426063683,39.9136382,-76.7606038,41.77842,17.334494084063834,56.87170157075999,1.778419999999997,5.83471147279999,17.42548314529167,57.17022212239872
764789506,Skyhunter 3,762466187.0,39.9129951,-76.758728,40.0,28.0,2.0,18.82122,1.4876825200491786,39.9129674,-76.7587981,39.89885,6.727398512153131,22.071518134612475,-0.1011499999999969,-0.33185696599999,6.728158891094959,22.074012816259987
774846181,Skyhunter 3,772166422.0,39.9121434,-76.7591572,40.0,28.0,2.0,14.78654,1.8936140571086948,39.912196,-76.759202,41.49993,6.988315346100272,22.927544520099616,1.499929999999999,4.921030341199997,7.147470978006176,23.44970868348178
785688493,Skyhunter 3,784166341.0,39.9128552,-76.7609972,40.0,28.0,2.0,14.85334,1.885097897173296,39.9128803,-76.7609738,45.53701,3.43210544237677,11.260188819567402,5.537010000000002,18.166043888400008,6.514432247532572,21.372809894994763
792288470,Skyhunter 3,789266227.0,39.9135094,-76.7607182,40.0,28.0,2.0,15.95109,1.7553659342402306,39.9136012,-76.7607203,42.52466,10.212149862488834,33.50442975484787,2.524659999999997,8.28300551439999,10.519596614392146,34.513113356362325
807888413,Skyhunter 3,806266203.0,39.9129951,-76.758728,40.0,28.0,2.0,22.27814,1.2568374200000538,39.9129548,-76.7587747,33.96428,5.997101275114996,19.67552974744828,-6.035719999999998,-19.802231604799992,8.508533341439398,27.91513652792804
815088507,Skyhunter 3,813166281.0,39.9121434,-76.7591572,40.0,28.0,2.0,19.71974,1.419897016897789,39.9121449,-76.7591655,43.05682,0.7274943630031301,2.3867926059151894,3.056820000000002,10.028937328800009,3.14219613655821,10.309042772665638
824146435,Skyhunter 3,822966253.0,39.9128552,-76.7609972,40.0,28.0,2.0,16.7873,1.6679275404621352,39.9128518,-76.7610056,37.79968,0.8102895933069103,2.6584305093050435,-2.200319999999998,-7.218897868799993,2.344776605014104,7.692836876794473
832846181,Skyhunter 3,828166412.0,39.9135094,-76.7607182,40.0,28.0,2.0,16.64161,1.6825295148726596,39.9135999,-76.7606312,39.40895,12.506493338096108,41.03180360335924,-0.5910500000000027,-1.9391404820000089,12.520451897529192,41.07759940348967
864288454,Skyhunter 3,859466268.0,39.9129951,-76.758728,40.0,28.0,2.0,13.47133,2.078488167092633,39.9129704,-76.7587983,39.94968,6.596779128541694,21.64297683608473,-0.0503199999999992,-0.1650918687999975,6.59697104534826,21.643606484420385
883488870,Skyhunter 3,880866115.0,39.9121434,-76.7591572,40.0,28.0,2.0,14.4697,1.9350781287794496,39.9121755,-76.7591871,45.47327,4.38799696156917,14.396315951394596,5.473269999999999,17.956923146799998,7.015069623862636,23.01532102475349
895589566,Skyhunter 3,894166367.0,39.9128552,-76.7609972,40.0,28.0,2.0,15.41458,1.8164620768129915,39.9128673,-76.760981,39.34268,1.929092826403928,6.329044908579064,-0.6573199999999986,-2.156561748799996,2.0380060636031225,6.686371813711668
902789480,Skyhunter 3,899266201.0,39.9135094,-76.7607182,40.0,28.0,2.0,13.76062,2.0347920369867056,39.9135487,-76.7606797,37.15498,5.4676684879159305,17.938545481894103,-2.845019999999998,-9.334055416799991,6.163565323264519,20.221671655179165
