TimeUS,Log,CMDTimeUS,CMDLat,CMDLng,CMDAlt,AcceptRadius,AcceptRatio,AcceptAirspeed,AirspeedRatio,Lat,Lng,RelHomeAlt,Haversine,HaversineFt,dAlt,dAltFt,Dist,DistFt
2245677515,Talon 7-3,2244597423.0,40.8004464,-77.8938282,35.0,26.0,1.9259259259259258,19.98624,1.3008950157708505,40.8003238,-77.8938521,47.69807,13.784028591614947,45.223192364513984,12.698070000000001,41.660335978800006,18.741409390420944,61.48756558446865
2259121649,Talon 7-3,2257496858.0,40.8007551,-77.8929001,35.0,26.0,1.9259259259259258,16.60799,1.5655115399274686,40.8010475,-77.8928583,39.41739,32.71245471139813,107.32432991534344,4.4173899999999975,14.492749807599992,33.00936272722292,108.29843760998205
2271521274,Talon 7-3,2266496775.0,40.8013967,-77.8934526,35.0,26.0,1.9259259259259258,13.60255,1.9114063171978781,40.8016147,-77.893738,32.15138,34.13723357974568,111.99880141777282,-2.848619999999997,-9.34586644079999,34.25588055184856,112.38806314972683
2277721885,Talon 7-3,2275797619.0,40.8009987,-77.8944343,35.0,26.0,1.9259259259259258,15.02934,1.7299495520096027,40.8010156,-77.8945015,32.32245,5.962079807516553,19.56062991569261,-2.6775499999999965,-8.784613141999989,6.535722579309545,21.442660067101926
2285721755,Talon 7-3,2283696798.0,40.8004464,-77.8938282,35.0,26.0,1.9259259259259258,12.96539,2.0053388289901037,40.8004017,-77.8938372,36.08865,5.029233813822517,16.50011146574147,1.0886500000000012,3.571686466000004,5.145711960127168,16.88225762726362
2293876759,Talon 7-3,2291597464.0,40.8007551,-77.8929001,35.0,26.0,1.9259259259259258,14.86439,1.7491467863800667,40.8007438,-77.8928519,33.71501,4.248457420743669,13.93850904427266,-1.2849900000000005,-4.215846591600002,4.438534640618675,14.562121990327375
2300424102,Talon 7-3,2298896723.0,40.8013967,-77.8934526,35.0,26.0,1.9259259259259258,14.1763,1.8340469657103757,40.8014608,-77.8933952,37.04828,8.613231076070198,28.258633043614147,2.0482799999999983,6.720078955199995,8.853428744174844,29.046683161038594
2308921432,Talon 7-3,2306797373.0,40.8009987,-77.8944343,35.0,26.0,1.9259259259259258,14.20668,1.8301249834584856,40.8009964,-77.8944991,32.36057,5.461929114848415,17.919715517159272,-2.6394299999999973,-8.659547521199991,6.066239393605298,19.902360852116004
2316777094,Talon 7-3,2314997482.0,40.8004464,-77.8938282,35.0,26.0,1.9259259259259258,13.58785,1.9134741699385849,40.8004648,-77.8938203,34.2735,2.151943826534131,7.060183383846239,-0.7265000000000015,-2.383530260000005,2.2712693549111167,7.451671350366588
2324077031,Talon 7-3,2321997003.0,40.8007551,-77.8929001,35.0,26.0,1.9259259259259258,14.27637,1.8211912411908628,40.8007669,-77.892917,36.09478,1.9357941875807305,6.3510310023823635,1.09478,3.5917980152,2.2239249953789675,7.296342081839132
2330177468,Talon 7-3,2328596966.0,40.8013967,-77.8934526,35.0,26.0,1.9259259259259258,13.00304,1.9995324170347857,40.8013942,-77.8934611,36.8824,0.7677881883530722,2.5189901998762934,1.882399999999997,6.17585321599999,2.0329605166294993,6.6698181813787265
2337321455,Talon 7-3,2335597000.0,40.8009987,-77.8944343,35.0,26.0,1.9259259259259258,13.30322,1.954414044118642,40.8009967,-77.8944182,33.97585,1.3736954294433248,4.506874912734838,-1.0241499999999988,-3.360072285999996,1.7134533420474214,5.621566262722862
2345421768,Talon 7-3,2343296938.0,40.8004464,-77.8938282,35.0,26.0,1.9259259259259258,13.47924,1.9288921333843747,40.8004725,-77.8938222,33.32395,2.9466358616074744,9.667440800196266,-1.6760499999999965,-5.498851881999989,3.389956711141193,11.12190557618047
2353377031,Talon 7-3,2351396869.0,40.8007551,-77.8929001,35.0,26.0,1.9259259259259258,13.92725,1.866843777486582,40.8007761,-77.8929544,32.46035,5.1339942358651784,16.843813648795912,-2.5396500000000017,-8.332185306000005,5.727802278046693,18.79200282590671
2359376937,Talon 7-3,2357696938.0,40.8013967,-77.8934526,35.0,26.0,1.9259259259259258,12.57416,2.0677325562900424,40.801423,-77.8934291,36.58512,3.531569903636883,11.58651580264803,1.5851200000000034,5.200525100800011,3.8709935932101245,12.700110620347505
2366677477,Talon 7-3,2364596811.0,40.8009987,-77.8944343,35.0,26.0,1.9259259259259258,13.81272,1.8823229602858813,40.8009981,-77.8944256,35.20071,0.7355434901003297,2.413200504060766,0.20071000000000083,0.6584973964000027,0.7624360497307129,2.501430689398512
2375121662,Talon 7-3,2372996920.0,40.8004464,-77.8938282,35.0,26.0,1.9259259259259258,13.20964,1.9682595437877186,40.8004687,-77.8938216,33.27332,2.541835494879634,8.339355565020899,-1.7266800000000018,-5.664960811200006,3.072840950233188,10.081499503163052
2383520905,Talon 7-3,2381496900.0,40.8007551,-77.8929001,35.0,26.0,1.9259259259259258,13.16193,1.9753941861110036,40.8007749,-77.8929629,33.86589,5.7278563803706,18.79218032697508,-1.1341099999999997,-3.720833452399999,5.839053365593792,19.156999843974738
2389222683,Talon 7-3,2387796805.0,40.8013967,-77.8934526,35.0,26.0,1.9259259259259258,14.91625,1.743065448755552,40.801441,-77.8934172,35.61592,5.758659436741016,18.893240226437396,0.6159200000000027,2.020734972800009,5.791503773180707,19.00099723920219
2395921026,Talon 7-3,2394197023.0,40.8009987,-77.8944343,35.0,26.0,1.9259259259259258,13.99576,1.8577054765157446,40.8010162,-77.8944817,36.17482,4.44028274432508,14.567857238891493,1.1748199999999969,3.8543964487999895,4.59307227049075,15.069135227916872
2404777051,Talon 7-3,2402696997.0,40.8004464,-77.8938282,35.0,26.0,1.9259259259259258,13.95748,1.8628004482184464,40.8004727,-77.8938217,31.9992,2.976007632712432,9.763804881708255,-3.0008000000000017,-9.845144672000005,4.226277566601922,13.86574049161025
2412277446,Talon 7-3,2410297066.0,40.8007551,-77.8929001,35.0,26.0,1.9259259259259258,14.31584,1.8161700605762567,40.8007706,-77.8929259,33.84599,2.7732646074972735,9.098637454861354,-1.1540099999999995,-3.7861221683999986,3.003786887130478,9.854944170773157
2418222332,Talon 7-3,2416696889.0,40.8013967,-77.8934526,35.0,26.0,1.9259259259259258,13.59978,1.9117956319881644,40.8014439,-77.893421,37.09301,5.8855783045979155,19.309640724857026,2.0930099999999996,6.866830928399999,6.246656933084582,20.49428193234122
2425277063,Talon 7-3,2423496921.0,40.8009987,-77.8944343,35.0,26.0,1.9259259259259258,13.81084,1.8825791914177559,40.8009881,-77.8944184,36.38264,1.7838787525185855,5.852620766413076,1.382640000000002,4.536220617600007,2.256970707228446,7.404759775103375
2432877048,Talon 7-3,2430996736.0,40.8004464,-77.8938282,35.0,26.0,1.9259259259259258,14.17816,1.8338063613332054,40.8004842,-77.8938133,32.47379,4.387536165739831,14.394804154005866,-2.526209999999999,-8.288090816399997,5.062826342051935,16.61032317605767
2440021948,Talon 7-3,2438096749.0,40.8007551,-77.8929001,35.0,26.0,1.9259259259259258,13.43583,1.9351242163677274,40.8007765,-77.8929477,36.74046,4.661305569352097,15.292997764153133,1.7404599999999988,5.710170786399996,4.975637710130518,16.324271224904606
2445576878,Talon 7-3,2444096764.0,40.8013967,-77.8934526,35.0,26.0,1.9259259259259258,13.81791,1.8816159607350171,40.801401,-77.8934528,34.8049,0.47856962142564674,1.570110356758119,-0.1950999999999965,-0.6400918839999885,0.5168103061583481,1.6955719248565548
2451721668,Talon 7-3,2450096999.0,40.8009987,-77.8944343,35.0,26.0,1.9259259259259258,13.91872,1.8679878609527312,40.8009935,-77.8944172,35.08035,1.5515896985708146,5.090517546659071,0.08035000000000281,0.2636154940000092,1.5536687919923835,5.097338719520291
2459576861,Talon 7-3,2457696948.0,40.8004464,-77.8938282,35.0,26.0,1.9259259259259258,13.44107,1.9343698083560312,40.8004909,-77.8938111,33.50348,5.154726861025009,16.911834074725288,-1.4965199999999967,-4.90984267679999,5.367567523764627,17.610130234667942
2466876964,Talon 7-3,2464896738.0,40.8007551,-77.8929001,35.0,26.0,1.9259259259259258,13.03901,1.9940164168905463,40.8007766,-77.8929576,37.31133,5.3997208069433436,17.715620012252,2.311329999999998,7.583103917199994,5.873604614019986,19.27035696186133
2472376909,Talon 7-3,2470896770.0,40.8013967,-77.8934526,35.0,26.0,1.9259259259259258,14.31399,1.8164047899991547,40.8014096,-77.8934454,34.45784,1.5576264100796329,5.110323031245663,-0.5421600000000026,-1.7787402144000086,1.6492839352208486,5.411036706029969
2478321408,Talon 7-3,2476796993.0,40.8009987,-77.8944343,35.0,26.0,1.9259259259259258,15.4769,1.6799229819925179,40.800992,-77.8944112,34.50066,2.082819846454453,6.833398665041627,-0.49933999999999656,-1.6382546455999887,2.1418400846899255,7.027034623454095
2486121725,Talon 7-3,2484296813.0,40.8004464,-77.8938282,35.0,26.0,1.9259259259259258,12.44903,2.0885161333854927,40.8004968,-77.8938097,35.6331,5.818191050753502,19.08855392695412,0.6330999999999989,2.0770998039999964,5.852534725490156,19.201230028777125
2493821536,Talon 7-3,2491796915.0,40.8007551,-77.8929001,35.0,26.0,1.9259259259259258,14.56639,1.7849309266056999,40.8007732,-77.8929569,33.30026,5.188845245345874,17.02377103474056,-1.6997399999999985,-5.576574981599995,5.460149361304,17.913876430540615
2499177410,Talon 7-3,2497796740.0,40.8013967,-77.8934526,35.0,26.0,1.9259259259259258,14.05416,1.8499860539512856,40.801388,-77.8934653,33.40634,1.4421385923375967,4.7314259792848805,-1.5936599999999999,-5.2285434743999994,2.1493059147337457,7.051528817295062
2505261852,Talon 7-3,2503696965.0,40.8009987,-77.8944343,35.0,26.0,1.9259259259259258,14.24858,1.8247432375717438,40.8009841,-77.8944084,36.33011,2.7189108141139244,8.920311355377528,1.3301099999999977,4.363878092399992,3.0268248425050364,9.930528016284223
2513461505,Talon 7-3,2511496880.0,40.8004464,-77.8938282,35.0,26.0,1.9259259259259258,13.95063,1.8637151153747178,40.8004795,-77.893809,35.48248,4.020879323802535,13.191861720704308,0.48248000000000246,1.582939683200008,4.049723137077735,13.286493657050116
2520821459,Talon 7-3,2518896848.0,40.8007551,-77.8929001,35.0,26.0,1.9259259259259258,14.3321,1.814109586173694,40.800781,-77.8929563,34.81785,5.5397925003649435,18.17517282689732,-0.18215000000000003,-0.5976050060000001,5.5427862641093855,18.184994886740636
2526521062,Talon 7-3,2524996871.0,40.8013967,-77.8934526,35.0,26.0,1.9259259259259258,13.75018,1.890884337514127,40.8013759,-77.8934739,34.93118,2.9272025225533014,9.603683124093774,-0.06882000000000232,-0.2257874088000076,2.928011407157153,9.606336945057475
2532821546,Talon 7-3,2531197009.0,40.8009987,-77.8944343,35.0,26.0,1.9259259259259258,13.71447,1.8958078584152358,40.8009849,-77.8944033,33.60994,3.0279652023054395,9.934269354331779,-1.3900599999999983,-4.560564450399994,3.3317923209546865,10.931077518280974
2540576900,Talon 7-3,2538696872.0,40.8004464,-77.8938282,35.0,26.0,1.9259259259259258,14.17633,1.8340430844936595,40.8004847,-77.8938148,34.11405,4.40684312436085,14.458147196128051,-0.8859500000000011,-2.9066601980000035,4.495016543376287,14.747430076170657
2547821629,Talon 7-3,2545896875.0,40.8007551,-77.8929001,35.0,26.0,1.9259259259259258,14.35978,1.810612697409013,40.8007779,-77.8929632,34.76795,5.887031931810758,19.314409843162007,-0.23205000000000098,-0.7613189220000032,5.891603531183977,19.329408529249637
2553479728,Talon 7-3,2551896749.0,40.8013967,-77.8934526,35.0,26.0,1.9259259259259258,14.06221,1.8489270178727242,40.8013844,-77.8934736,36.1041,2.23559613863574,7.334633235481681,1.1041000000000025,3.622375444000008,2.4933766071500383,8.180369707802132
2559977121,Talon 7-3,2558296967.0,40.8009987,-77.8944343,35.0,26.0,1.9259259259259258,13.52086,1.9229546049585602,40.8009819,-77.8943914,34.36865,4.0667488316138245,13.3423522367119,-0.6313499999999976,-2.071358333999992,4.115464600981571,13.502180881484378
2567479767,Talon 7-3,2565496911.0,40.8004464,-77.8938282,35.0,26.0,1.9259259259259258,13.06584,1.9899218113799038,40.8004804,-77.8938105,34.88118,4.064749408465066,13.335792449268528,-0.11881999999999948,-0.3898294087999983,4.0664856997187515,13.341488943065269
2574821478,Talon 7-3,2572896784.0,40.8007551,-77.8929001,35.0,26.0,1.9259259259259258,13.60153,1.9115496565459915,40.8007804,-77.8929779,34.43814,7.129372882102895,23.39033172651846,-0.5618600000000029,-1.8433727624000096,7.151478473131562,23.462856633788956
2580479972,Talon 7-3,2578996741.0,40.8013967,-77.8934526,35.0,26.0,1.9259259259259258,14.26191,1.823037727765776,40.801376,-77.8934685,34.64043,2.6632951441978467,8.737845240890064,-0.35956999999999795,-1.1796916387999932,2.6874582061881127,8.817120381190207
2586879483,Talon 7-3,2585096940.0,40.8009987,-77.8944343,35.0,26.0,1.9259259259259258,14.78073,1.759047083601419,40.8009805,-77.89438,35.82634,4.999988193938517,16.404161266201243,0.8263400000000019,2.711089325600006,5.067812125081647,16.626680732452872
2245677515,Talon 7-3,2244597423.0,40.8004464,-77.8938282,35.0,26.0,1.9259259259259256,19.98624,1.3008950157708503,40.8003238,-77.8938521,47.69807,13.784028591614948,45.223192364513984,12.69807,41.660335978800006,18.741409390420944,61.48756558446865
2259121649,Talon 7-3,2257496858.0,40.8007551,-77.8929001,35.0,26.0,1.9259259259259256,16.60799,1.5655115399274686,40.8010475,-77.8928583,39.41739,32.71245471139813,107.32432991534344,4.4173899999999975,14.492749807599992,33.00936272722292,108.29843760998205
2271521274,Talon 7-3,2266496775.0,40.8013967,-77.8934526,35.0,26.0,1.9259259259259256,13.60255,1.911406317197878,40.8016147,-77.893738,32.15138,34.13723357974568,111.99880141777282,-2.848619999999997,-9.34586644079999,34.25588055184856,112.38806314972685
2277721885,Talon 7-3,2275797619.0,40.8009987,-77.8944343,35.0,26.0,1.9259259259259256,15.02934,1.7299495520096029,40.8010156,-77.8945015,32.32245,5.962079807516553,19.56062991569261,-2.6775499999999965,-8.784613141999989,6.535722579309545,21.44266006710193
2285721755,Talon 7-3,2283696798.0,40.8004464,-77.8938282,35.0,26.0,1.9259259259259256,12.96539,2.005338828990104,40.8004017,-77.8938372,36.08865,5.029233813822517,16.50011146574147,1.0886500000000012,3.571686466000004,5.145711960127168,16.88225762726362
2293876759,Talon 7-3,2291597464.0,40.8007551,-77.8929001,35.0,26.0,1.9259259259259256,14.86439,1.7491467863800667,40.8007438,-77.8928519,33.71501,4.248457420743669,13.93850904427266,-1.2849900000000003,-4.215846591600002,4.438534640618675,14.562121990327377
2300424102,Talon 7-3,2298896723.0,40.8013967,-77.8934526,35.0,26.0,1.9259259259259256,14.1763,1.834046965710376,40.8014608,-77.8933952,37.04828,8.613231076070198,28.258633043614147,2.0482799999999983,6.720078955199995,8.853428744174844,29.046683161038597
2308921432,Talon 7-3,2306797373.0,40.8009987,-77.8944343,35.0,26.0,1.9259259259259256,14.20668,1.8301249834584856,40.8009964,-77.8944991,32.36057,5.461929114848415,17.919715517159272,-2.6394299999999973,-8.659547521199991,6.066239393605298,19.902360852116004
2316777094,Talon 7-3,2314997482.0,40.8004464,-77.8938282,35.0,26.0,1.9259259259259256,13.58785,1.9134741699385849,40.8004648,-77.8938203,34.2735,2.151943826534131,7.060183383846239,-0.7265000000000015,-2.383530260000005,2.2712693549111167,7.451671350366588
2324077031,Talon 7-3,2321997003.0,40.8007551,-77.8929001,35.0,26.0,1.9259259259259256,14.27637,1.8211912411908628,40.8007669,-77.892917,36.09478,1.9357941875807303,6.351031002382364,1.09478,3.5917980152,2.2239249953789675,7.296342081839132
2330177468,Talon 7-3,2328596966.0,40.8013967,-77.8934526,35.0,26.0,1.9259259259259256,13.00304,1.9995324170347857,40.8013942,-77.8934611,36.8824,0.7677881883530722,2.5189901998762934,1.882399999999997,6.17585321599999,2.0329605166294997,6.669818181378727
2337321455,Talon 7-3,2335597000.0,40.8009987,-77.8944343,35.0,26.0,1.9259259259259256,13.30322,1.954414044118642,40.8009967,-77.8944182,33.97585,1.3736954294433248,4.506874912734838,-1.0241499999999988,-3.360072285999996,1.7134533420474214,5.621566262722862
2345421768,Talon 7-3,2343296938.0,40.8004464,-77.8938282,35.0,26.0,1.9259259259259256,13.47924,1.9288921333843747,40.8004725,-77.8938222,33.32395,2.9466358616074744,9.667440800196266,-1.6760499999999965,-5.498851881999989,3.389956711141193,11.12190557618047
2353377031,Talon 7-3,2351396869.0,40.8007551,-77.8929001,35.0,26.0,1.9259259259259256,13.92725,1.866843777486582,40.8007761,-77.8929544,32.46035,5.133994235865178,16.843813648795912,-2.5396500000000017,-8.332185306000005,5.727802278046693,18.79200282590671
2359376937,Talon 7-3,2357696938.0,40.8013967,-77.8934526,35.0,26.0,1.9259259259259256,12.57416,2.0677325562900424,40.801423,-77.8934291,36.58512,3.531569903636883,11.58651580264803,1.5851200000000034,5.200525100800011,3.870993593210125,12.700110620347504
2366677477,Talon 7-3,2364596811.0,40.8009987,-77.8944343,35.0,26.0,1.9259259259259256,13.81272,1.8823229602858813,40.8009981,-77.8944256,35.20071,0.7355434901003297,2.413200504060766,0.2007100000000008,0.6584973964000027,0.7624360497307129,2.501430689398512
2375121662,Talon 7-3,2372996920.0,40.8004464,-77.8938282,35.0,26.0,1.9259259259259256,13.20964,1.9682595437877184,40.8004687,-77.8938216,33.27332,2.541835494879634,8.339355565020899,-1.7266800000000018,-5.664960811200006,3.072840950233188,10.081499503163052
2383520905,Talon 7-3,2381496900.0,40.8007551,-77.8929001,35.0,26.0,1.9259259259259256,13.16193,1.975394186111004,40.8007749,-77.8929629,33.86589,5.7278563803706,18.79218032697508,-1.1341099999999995,-3.720833452399999,5.839053365593792,19.156999843974734
2389222683,Talon 7-3,2387796805.0,40.8013967,-77.8934526,35.0,26.0,1.9259259259259256,14.91625,1.743065448755552,40.801441,-77.8934172,35.61592,5.758659436741016,18.8932402264374,0.6159200000000027,2.020734972800009,5.791503773180707,19.00099723920219
2395921026,Talon 7-3,2394197023.0,40.8009987,-77.8944343,35.0,26.0,1.9259259259259256,13.99576,1.8577054765157448,40.8010162,-77.8944817,36.17482,4.44028274432508,14.567857238891492,1.1748199999999969,3.8543964487999895,4.59307227049075,15.069135227916872
2404777051,Talon 7-3,2402696997.0,40.8004464,-77.8938282,35.0,26.0,1.9259259259259256,13.95748,1.8628004482184464,40.8004727,-77.8938217,31.9992,2.976007632712432,9.763804881708255,-3.0008000000000017,-9.845144672000004,4.226277566601922,13.86574049161025
2412277446,Talon 7-3,2410297066.0,40.8007551,-77.8929001,35.0,26.0,1.9259259259259256,14.31584,1.8161700605762567,40.8007706,-77.8929259,33.84599,2.773264607497273,9.098637454861354,-1.1540099999999995,-3.786122168399999,3.003786887130478,9.854944170773155
2418222332,Talon 7-3,2416696889.0,40.8013967,-77.8934526,35.0,26.0,1.9259259259259256,13.59978,1.9117956319881644,40.8014439,-77.893421,37.09301,5.885578304597916,19.309640724857022,2.09301,6.866830928399999,6.246656933084582,20.49428193234122
2425277063,Talon 7-3,2423496921.0,40.8009987,-77.8944343,35.0,26.0,1.9259259259259256,13.81084,1.882579191417756,40.8009881,-77.8944184,36.38264,1.7838787525185855,5.852620766413076,1.382640000000002,4.536220617600007,2.256970707228446,7.404759775103375
2432877048,Talon 7-3,2430996736.0,40.8004464,-77.8938282,35.0,26.0,1.9259259259259256,14.17816,1.8338063613332052,40.8004842,-77.8938133,32.47379,4.387536165739831,14.394804154005866,-2.526209999999999,-8.288090816399997,5.062826342051935,16.61032317605767
2440021948,Talon 7-3,2438096749.0,40.8007551,-77.8929001,35.0,26.0,1.9259259259259256,13.43583,1.9351242163677276,40.8007765,-77.8929477,36.74046,4.661305569352097,15.292997764153132,1.7404599999999988,5.710170786399996,4.975637710130518,16.324271224904606
2445576878,Talon 7-3,2444096764.0,40.8013967,-77.8934526,35.0,26.0,1.9259259259259256,13.81791,1.8816159607350167,40.801401,-77.8934528,34.8049,0.4785696214256467,1.570110356758119,-0.1950999999999965,-0.6400918839999885,0.5168103061583481,1.6955719248565548
2451721668,Talon 7-3,2450096999.0,40.8009987,-77.8944343,35.0,26.0,1.9259259259259256,13.91872,1.8679878609527312,40.8009935,-77.8944172,35.08035,1.5515896985708146,5.090517546659071,0.0803500000000028,0.2636154940000092,1.5536687919923835,5.097338719520291
2459576861,Talon 7-3,2457696948.0,40.8004464,-77.8938282,35.0,26.0,1.9259259259259256,13.44107,1.9343698083560312,40.8004909,-77.8938111,33.50348,5.154726861025009,16.911834074725288,-1.4965199999999967,-4.90984267679999,5.367567523764627,17.610130234667942
2466876964,Talon 7-3,2464896738.0,40.8007551,-77.8929001,35.0,26.0,1.9259259259259256,13.03901,1.9940164168905463,40.8007766,-77.8929576,37.31133,5.399720806943344,17.715620012252,2.311329999999998,7.583103917199994,5.873604614019986,19.27035696186133
2472376909,Talon 7-3,2470896770.0,40.8013967,-77.8934526,35.0,26.0,1.9259259259259256,14.31399,1.816404789999155,40.8014096,-77.8934454,34.45784,1.5576264100796329,5.110323031245663,-0.5421600000000026,-1.7787402144000086,1.6492839352208486,5.411036706029969
2478321408,Talon 7-3,2476796993.0,40.8009987,-77.8944343,35.0,26.0,1.9259259259259256,15.4769,1.679922981992518,40.800992,-77.8944112,34.50066,2.082819846454453,6.833398665041627,-0.4993399999999965,-1.638254645599989,2.141840084689925,7.027034623454095
2486121725,Talon 7-3,2484296813.0,40.8004464,-77.8938282,35.0,26.0,1.9259259259259256,12.44903,2.0885161333854927,40.8004968,-77.8938097,35.6331,5.818191050753502,19.08855392695412,0.6330999999999989,2.0770998039999964,5.852534725490156,19.201230028777125
2493821536,Talon 7-3,2491796915.0,40.8007551,-77.8929001,35.0,26.0,1.9259259259259256,14.56639,1.7849309266057,40.8007732,-77.8929569,33.30026,5.188845245345874,17.02377103474056,-1.6997399999999985,-5.576574981599995,5.460149361304,17.913876430540615
2499177410,Talon 7-3,2497796740.0,40.8013967,-77.8934526,35.0,26.0,1.9259259259259256,14.05416,1.8499860539512856,40.801388,-77.8934653,33.40634,1.442138592337597,4.7314259792848805,-1.59366,-5.2285434744,2.1493059147337457,7.051528817295062
2505261852,Talon 7-3,2503696965.0,40.8009987,-77.8944343,35.0,26.0,1.9259259259259256,14.24858,1.824743237571744,40.8009841,-77.8944084,36.33011,2.7189108141139244,8.920311355377528,1.3301099999999977,4.363878092399992,3.0268248425050364,9.930528016284224
2513461505,Talon 7-3,2511496880.0,40.8004464,-77.8938282,35.0,26.0,1.9259259259259256,13.95063,1.8637151153747176,40.8004795,-77.893809,35.48248,4.020879323802535,13.191861720704308,0.4824800000000024,1.582939683200008,4.049723137077735,13.286493657050116
2520821459,Talon 7-3,2518896848.0,40.8007551,-77.8929001,35.0,26.0,1.9259259259259256,14.3321,1.814109586173694,40.800781,-77.8929563,34.81785,5.539792500364944,18.17517282689732,-0.18215,-0.5976050060000001,5.5427862641093855,18.18499488674064
2526521062,Talon 7-3,2524996871.0,40.8013967,-77.8934526,35.0,26.0,1.9259259259259256,13.75018,1.890884337514127,40.8013759,-77.8934739,34.93118,2.9272025225533014,9.603683124093774,-0.0688200000000023,-0.2257874088000076,2.928011407157153,9.606336945057476
2532821546,Talon 7-3,2531197009.0,40.8009987,-77.8944343,35.0,26.0,1.9259259259259256,13.71447,1.895807858415236,40.8009849,-77.8944033,33.60994,3.0279652023054395,9.93426935433178,-1.3900599999999983,-4.560564450399994,3.3317923209546865,10.931077518280974
2540576900,Talon 7-3,2538696872.0,40.8004464,-77.8938282,35.0,26.0,1.9259259259259256,14.17633,1.8340430844936595,40.8004847,-77.8938148,34.11405,4.40684312436085,14.458147196128053,-0.8859500000000011,-2.9066601980000035,4.495016543376287,14.747430076170655
2547821629,Talon 7-3,2545896875.0,40.8007551,-77.8929001,35.0,26.0,1.9259259259259256,14.35978,1.810612697409013,40.8007779,-77.8929632,34.76795,5.887031931810758,19.314409843162007,-0.2320500000000009,-0.7613189220000032,5.891603531183977,19.32940852924964
2553479728,Talon 7-3,2551896749.0,40.8013967,-77.8934526,35.0,26.0,1.9259259259259256,14.06221,1.848927017872724,40.8013844,-77.8934736,36.1041,2.23559613863574,7.334633235481681,1.1041000000000023,3.622375444000008,2.4933766071500383,8.180369707802132
2559977121,Talon 7-3,2558296967.0,40.8009987,-77.8944343,35.0,26.0,1.9259259259259256,13.52086,1.92295460495856,40.8009819,-77.8943914,34.36865,4.0667488316138245,13.3423522367119,-0.6313499999999976,-2.071358333999992,4.115464600981571,13.502180881484378
2567479767,Talon 7-3,2565496911.0,40.8004464,-77.8938282,35.0,26.0,1.9259259259259256,13.06584,1.989921811379904,40.8004804,-77.8938105,34.88118,4.064749408465066,13.335792449268528,-0.1188199999999994,-0.3898294087999983,4.066485699718752,13.341488943065269
2574821478,Talon 7-3,2572896784.0,40.8007551,-77.8929001,35.0,26.0,1.9259259259259256,13.60153,1.9115496565459915,40.8007804,-77.8929779,34.43814,7.129372882102895,23.39033172651846,-0.5618600000000029,-1.8433727624000096,7.151478473131562,23.46285663378896
2580479972,Talon 7-3,2578996741.0,40.8013967,-77.8934526,35.0,26.0,1.9259259259259256,14.26191,1.823037727765776,40.801376,-77.8934685,34.64043,2.6632951441978467,8.737845240890064,-0.3595699999999979,-1.1796916387999932,2.6874582061881127,8.817120381190207
2586879483,Talon 7-3,2585096940.0,40.8009987,-77.8944343,35.0,26.0,1.9259259259259256,14.78073,1.759047083601419,40.8009805,-77.89438,35.82634,4.999988193938517,16.404161266201243,0.8263400000000019,2.711089325600006,5.067812125081647,16.626680732452872
2300424102,Talon 7-3,2298896723.0,40.8013967,-77.8934526,35.0,26.0,1.9259259259259256,14.1763,1.834046965710376,40.8014608,-77.8933952,37.04828,8.613231076070198,28.258633043614147,2.0482799999999983,6.720078955199995,8.853428744174844,29.0466831610386
2330177468,Talon 7-3,2328596966.0,40.8013967,-77.8934526,35.0,26.0,1.9259259259259256,13.00304,1.9995324170347857,40.8013942,-77.8934611,36.8824,0.7677881883530722,2.5189901998762934,1.882399999999997,6.17585321599999,2.0329605166295,6.669818181378727
2383520905,Talon 7-3,2381496900.0,40.8007551,-77.8929001,35.0,26.0,1.9259259259259256,13.16193,1.975394186111004,40.8007749,-77.8929629,33.86589,5.7278563803706,18.79218032697508,-1.1341099999999995,-3.720833452399999,5.839053365593792,19.15699984397473
2432877048,Talon 7-3,2430996736.0,40.8004464,-77.8938282,35.0,26.0,1.9259259259259256,14.17816,1.8338063613332047,40.8004842,-77.8938133,32.47379,4.387536165739831,14.394804154005866,-2.526209999999999,-8.288090816399997,5.062826342051935,16.61032317605767
2440021948,Talon 7-3,2438096749.0,40.8007551,-77.8929001,35.0,26.0,1.9259259259259256,13.43583,1.935124216367728,40.8007765,-77.8929477,36.74046,4.661305569352097,15.292997764153132,1.7404599999999988,5.710170786399996,4.975637710130518,16.324271224904606
239002328,Talon 7-1,237622395.0,40.8008525,-77.8945255,35.0,10.0,0.7407407407407407,19.58968,0.510472861220806,40.8008338,-77.8946699,52.18061,12.33463599181241,40.46796714737783,17.18061,56.3668325124,21.149860638373347,69.38930877680082
249105891,Talon 7-1,248622529.0,40.8005723,-77.8936458,35.0,10.0,0.7407407407407407,15.97112,0.6261301649477307,40.8006677,-77.8935012,38.17558,16.149954969494086,52.985418262114976,3.1755799999999965,10.418569887199988,16.459202710128057,54.000010619496535
254147508,Talon 7-1,254022341.0,40.800816,-77.892884,35.0,10.0,0.7407407407407407,14.19763,0.7043429079360428,40.8006785,-77.8927795,35.9146,17.643971029226872,57.88704591152869,0.9146,3.0006562640000003,17.6676599140972,57.96476535256666
261446927,Talon 7-1,261222352.0,40.8013906,-77.8932917,35.0,10.0,0.7407407407407407,14.62392,0.6838111805863271,40.8015003,-77.8931399,33.26671,17.670028861267543,57.972537489201,-1.7332899999999969,-5.686647163599989,17.75483636033089,58.250777324428
266702710,Talon 7-1,266325434.0,40.8013114,-77.8939623,35.0,10.0,0.7407407407407407,13.7991,0.7246849432209347,40.8014837,-77.894079,32.77364,21.53634708992608,70.65730898651307,-2.22636,-7.304330942399999,21.651118327406728,71.03385505328909
272247689,Talon 7-1,272125312.0,40.8008525,-77.8945255,35.0,10.0,0.7407407407407407,13.9338,0.7176793121761472,40.8009016,-77.8946338,34.00884,10.62882402393985,34.87147101070282,-0.9911600000000008,-3.251837374400002,10.67493785824915,35.02276312285814
282747088,Talon 7-1,282525269.0,40.8005723,-77.8936458,35.0,10.0,0.7407407407407407,13.25736,0.7542979899467164,40.8005365,-77.8936591,34.15201,4.136369385237821,13.570766133863652,-0.8479900000000029,-2.7821195116000097,4.222397273023077,13.853009869225032
289303066,Talon 7-1,288925318.0,40.800816,-77.892884,35.0,10.0,0.7407407407407407,12.81323,0.7804433386429495,40.8007532,-77.8928271,35.77769,8.470074825488474,27.78896029045561,0.7776899999999998,2.551476459599999,8.505702162988873,27.90584788442041
296202975,Talon 7-1,295925227.0,40.8013906,-77.8932917,35.0,10.0,0.7407407407407407,14.03879,0.7123121009716649,40.8014945,-77.8931528,33.62622,16.44139794915656,53.94159604751081,-1.3737799999999964,-4.507152375199988,16.498692009093617,54.1295686911147
301547216,Talon 7-1,301222517.0,40.8013114,-77.8939623,35.0,10.0,0.7407407407407407,13.47731,0.7419878299156137,40.8014513,-77.8940615,35.16384,17.660442367670168,57.94108573754699,0.1638400000000004,0.5375328256000014,17.661202342066055,57.943579091944
307147659,Talon 7-1,306822340.0,40.8008525,-77.8945255,35.0,10.0,0.7407407407407407,14.86119,0.6728936242656207,40.8008962,-77.8946086,36.45384,8.519376579424623,27.95071145683948,1.4538399999999996,4.769816425599998,8.642535973176438,28.354777722236182
317802515,Talon 7-1,317622321.0,40.8005723,-77.8936458,35.0,10.0,0.7407407407407407,12.92025,0.7739788316789536,40.8005329,-77.8936544,34.88341,4.441736562252108,14.572626982899203,-0.1165900000000021,-0.3825131356000072,4.443266469225897,14.577646362895091
324047048,Talon 7-1,323725288.0,40.800816,-77.892884,35.0,10.0,0.7407407407407407,13.70748,0.7295286952817002,40.8007489,-77.8928322,35.15424,8.64421313899719,28.36028023494754,0.1542400000000015,0.5060367616000049,8.645589093289805,28.364794520828926
330946851,Talon 7-1,330725368.0,40.8013906,-77.8932917,35.0,10.0,0.7407407407407407,13.20976,0.757016024515207,40.8014864,-77.8931556,35.21425,15.647672057455171,51.33750839298123,0.2142499999999998,0.7029199699999994,15.649138758416177,51.34232040416213
336247673,Talon 7-1,335925134.0,40.8013114,-77.8939623,35.0,10.0,0.7407407407407407,13.34517,0.7493347780507854,40.8014476,-77.8940473,34.8241,16.754428605914807,54.968599547429534,-0.1758999999999986,-0.5770997559999954,16.755351942609156,54.97162886738983
341802463,Talon 7-1,341422300.0,40.8008525,-77.8945255,35.0,10.0,0.7407407407407407,12.40778,0.8059459468172389,40.8008877,-77.894612,35.57461,8.268664951135325,27.128166718282817,0.5746099999999998,1.8852034723999995,8.288606440544378,27.193591554395617
351447006,Talon 7-1,351422303.0,40.8005723,-77.8936458,35.0,10.0,0.7407407407407407,12.95808,0.7717192670519089,40.8005295,-77.8936627,35.42289,4.9685987074108295,16.301177383221745,0.4228900000000024,1.387434427600008,4.986562851041243,16.36011486421015
357902774,Talon 7-1,357622463.0,40.800816,-77.892884,35.0,10.0,0.7407407407407407,12.6686,0.789353203984655,40.8007466,-77.89283,34.83369,8.95859643359072,29.39172152318178,-0.1663100000000028,-0.5456365004000093,8.960140014310289,29.39678576454977
364903078,Talon 7-1,364622372.0,40.8013906,-77.8932917,35.0,10.0,0.7407407407407407,13.54646,0.738200238291037,40.8014869,-77.8931642,35.44218,15.164679774248706,49.75288799054612,0.4421800000000004,1.4507218312000014,15.171125067308218,49.77403396582749
370103391,Talon 7-1,369822440.0,40.8013114,-77.8939623,35.0,10.0,0.7407407407407407,13.34342,0.7494330538947286,40.8014493,-77.8940475,34.47538,16.93271506792891,55.553528903463885,-0.5246199999999988,-1.7211942807999958,16.940840171492876,55.580186068240685
375802491,Talon 7-1,375422144.0,40.8008525,-77.8945255,35.0,10.0,0.7407407407407407,12.35126,0.8096339968553815,40.8008878,-77.8946068,35.71671,7.891285579508272,25.89004538067392,0.7167099999999991,2.351410836399997,7.923765602379667,25.99660713891131
385346871,Talon 7-1,385125492.0,40.8005723,-77.8936458,35.0,10.0,0.7407407407407407,14.34983,0.696872367129088,40.8005434,-77.8936525,35.18508,3.263566264921446,10.707238744604878,0.1850799999999992,0.6072178671999975,3.268810085020743,10.724442879339454
391602892,Talon 7-1,391525542.0,40.800816,-77.892884,35.0,10.0,0.7407407407407407,13.27314,0.7534012298521676,40.8007336,-77.8928152,34.78948,10.842231997359706,35.571628426217615,-0.2105200000000024,-0.6906824368000082,10.844275603053006,35.57833316952043
398802533,Talon 7-1,398522653.0,40.8013906,-77.8932917,35.0,10.0,0.7407407407407407,13.7109,0.7293467241391886,40.8014911,-77.8931713,35.43735,15.09025905508108,49.508725518272215,0.4373500000000021,1.4348753740000069,15.096595423205745,49.52951412827033
404203008,Talon 7-1,403822517.0,40.8013114,-77.8939623,35.0,10.0,0.7407407407407407,13.80751,0.7242435457225814,40.8014428,-77.8940613,34.71358,16.82502279104115,55.200207773759445,-0.2864199999999997,-0.9396981927999988,16.82746054327432,55.20820564879612
409846933,Talon 7-1,409422155.0,40.8008525,-77.8945255,35.0,10.0,0.7407407407407407,14.71279,0.6796807403626368,40.8008873,-77.8945931,33.96303,6.883134665674743,22.582463536532323,-1.0369699999999966,-3.402132654799989,6.96080811448738,22.837297694334776
420447093,Talon 7-1,420422312.0,40.8005723,-77.8936458,35.0,10.0,0.7407407407407407,12.85143,0.7781235239969404,40.8005228,-77.8936591,33.26569,5.6184318096093016,18.43317581823858,-1.734310000000001,-5.689993620400002,5.88001761692341,19.291396998307
426702633,Talon 7-1,426322829.0,40.800816,-77.892884,35.0,10.0,0.7407407407407407,13.42028,0.7451409359566268,40.8007499,-77.8928389,33.91598,8.274787399839928,27.14825349289083,-1.0840200000000024,-3.556496176800008,8.345490151749605,27.38021790946617
433802455,Talon 7-1,433622339.0,40.8013906,-77.8932917,35.0,10.0,0.7407407407407407,13.38345,0.7471914939720327,40.8014691,-77.8931792,36.15856,12.882341501556075,42.26490129196523,1.1585600000000014,3.801049990400005,12.93433352888018,42.435478814891255
439502344,Talon 7-1,439323012.0,40.8013114,-77.8939623,35.0,10.0,0.7407407407407407,13.59969,0.7353108784097284,40.8014231,-77.8940279,35.81839,13.596387613973691,44.60757233942945,0.8183900000000008,2.6850066476000025,13.620995497448682,44.68830686784953
446002310,Talon 7-1,445322962.0,40.8008525,-77.8945255,35.0,10.0,0.7407407407407407,14.05736,0.7113711251614813,40.8008735,-77.8945705,33.49197,4.450970404988319,14.602921743501875,-1.508029999999998,-4.947605145199994,4.699499125117684,15.4183047096511
455446772,Talon 7-1,455322995.0,40.8005723,-77.8936458,35.0,10.0,0.7407407407407407,12.94357,0.7725843797344937,40.8005314,-77.8936581,36.81771,4.665549344473826,15.306920911323507,1.8177099999999984,5.963615676399994,5.007136939391626,16.42761515623362
462150130,Talon 7-1,461622322.0,40.800816,-77.892884,35.0,10.0,0.7407407407407407,13.53056,0.7390677104273585,40.8007573,-77.8928406,34.88367,7.482005579427676,24.54726318520949,-0.1163299999999978,-0.3816601171999929,7.482909872468522,24.550230025989624
468949435,Talon 7-1,468723162.0,40.8013906,-77.8932917,35.0,10.0,0.7407407407407407,13.04963,0.7663052515665195,40.8014824,-77.8931595,36.86159,15.104587031232024,49.55573331554727,1.86159,6.107578935599999,15.218872057815672,49.93068420216397
474846672,Talon 7-1,474622384.0,40.8013114,-77.8939623,35.0,10.0,0.7407407407407407,12.75291,0.784134758263016,40.8014001,-77.8940173,34.81361,10.898518594218768,35.756295744656704,-0.1863900000000029,-0.6115157676000097,10.900112328808005,35.76152453284645
480802376,Talon 7-1,480322935.0,40.8008525,-77.8945255,35.0,10.0,0.7407407407407407,13.12457,0.7619297241738205,40.800884,-77.8945969,35.51121,6.958109032409462,22.82844243789026,0.5112099999999984,1.6771982163999948,6.976862974933515,22.88997112268088
491047303,Talon 7-1,490822339.0,40.8005723,-77.8936458,35.0,10.0,0.7407407407407407,13.64952,0.7326264952906768,40.8005403,-77.8936604,33.69335,3.765545580092675,12.354152560991253,-1.3066499999999976,-4.286909585999992,3.985808291708907,13.07679927577025
497502294,Talon 7-1,495422128.0,40.800816,-77.892884,35.0,27.0,2.0,14.11861,1.912369560459564,40.8008061,-77.89286,33.21276,2.301266968962176,7.550088722449865,-1.787239999999997,-5.863648481599991,2.9137701487997214,9.55961365498808
502549508,Talon 7-1,501422127.0,40.8013906,-77.8932917,35.0,27.0,2.0,13.69723,1.9712014765029136,40.8014706,-77.8932051,35.57415,11.503930413495617,37.74255505781296,0.574150000000003,1.8836942860000097,11.518249136958683,37.789532498499526
507602992,Talon 7-1,507422574.0,40.8013114,-77.8939623,35.0,27.0,2.0,12.82583,2.10512691966134,40.8014242,-77.8940293,36.21997,13.756192986682375,45.13186819842701,1.2199700000000036,4.002526374800012,13.810183644244177,45.30900290738207
513947103,Talon 7-1,511722788.0,40.8008525,-77.8945255,35.0,27.0,2.0,13.9373,1.9372475300093992,40.800852,-77.8945238,33.52851,0.1535587294702152,0.5038016219950608,-1.4714900000000029,-4.827723251600009,1.479480687098184,4.853939417459206
521802387,Talon 7-1,520522515.0,40.8005723,-77.8936458,35.0,27.0,2.0,13.74321,1.964606522057074,40.8005468,-77.8936508,33.73349,2.867344777244636,9.407299438975292,-1.2665099999999967,-4.155216668399989,3.1345994403898056,10.28411922800849
527802635,Talon 7-1,525822388.0,40.800816,-77.892884,35.0,27.0,2.0,14.415,1.8730489073881376,40.8008173,-77.8928918,33.29274,0.6724640906244588,2.2062470870843494,-1.707259999999998,-5.601246898399993,1.8349236117014167,6.020090782214478
532702534,Talon 7-1,531622319.0,40.8013906,-77.8932917,35.0,27.0,2.0,15.44951,1.7476282419312974,40.801464,-77.893199,35.26161,11.294628534316391,37.05586908052659,0.2616099999999974,0.8583005523999917,11.297657877644111,37.06580787128991
537402494,Talon 7-1,537222515.0,40.8013114,-77.8939623,35.0,27.0,2.0,12.6482,2.134691102291235,40.8014333,-77.8940194,36.40799,14.385605558303556,47.19687013990464,1.407989999999998,4.619389911599994,14.454344783461966,47.42239253937336
543647886,Talon 7-1,541622327.0,40.8008525,-77.8945255,35.0,27.0,2.0,14.13997,1.9094807131839744,40.8008597,-77.8944989,33.57161,2.378504001127621,7.803491067059544,-1.4283900000000005,-4.6863190476000005,2.774451166533681,9.10253036521036
551647618,Talon 7-1,550422373.0,40.8005723,-77.8936458,35.0,27.0,2.0,13.91195,1.9407775329842327,40.8005409,-77.8936527,34.29492,3.54049722929656,11.615804929765329,-0.7050800000000024,-2.313254667200008,3.610021944123972,11.843904395159692
557603033,Talon 7-1,555622525.0,40.800816,-77.892884,35.0,27.0,2.0,14.45181,1.8682780911179984,40.8008173,-77.892889,34.09686,0.4451233950127355,1.4603786392935834,-0.9031400000000004,-2.9630578376000014,1.0068747173246853,3.303394847587521
562502344,Talon 7-1,561422149.0,40.8013906,-77.8932917,35.0,27.0,2.0,14.56943,1.8531953549315243,40.8014661,-77.8931911,36.99463,11.92737842333131,39.1318202264023,1.9946300000000008,6.544061889200003,12.093010580093331,39.67523283159341
567547385,Talon 7-1,567322489.0,40.8013114,-77.8939623,35.0,27.0,2.0,12.91299,2.0909177502654304,40.8014165,-77.8940263,35.84669,12.872060606256952,42.23117131943207,0.8466900000000024,2.777854419600008,12.899877061710786,42.32243265914322
573702730,Talon 7-1,571522308.0,40.8008525,-77.8945255,35.0,27.0,2.0,14.73191,1.8327562413835004,40.8008506,-77.8945303,33.03851,0.4560624255224843,1.4962678481511875,-1.9614899999999973,-6.435334851599992,2.013811301009467,6.6069926688039
581446676,Talon 7-1,580222403.0,40.8005723,-77.8936458,35.0,27.0,2.0,14.21749,1.8990693856651208,40.8005601,-77.8936465,33.8434,1.3582407251069564,4.456170500559907,-1.1565999999999974,-3.794619543999992,1.783967888539215,5.852913207434998
587446519,Talon 7-1,585322370.0,40.800816,-77.892884,35.0,27.0,2.0,14.03902,1.9232111643120389,40.8008173,-77.8928854,35.14456,0.1865532615195879,0.612051402523925,0.1445599999999984,0.4742782303999949,0.2360078663595672,0.7743040482671224
592547397,Talon 7-1,591322078.0,40.8013906,-77.8932917,35.0,27.0,2.0,14.96918,1.803706014624716,40.8014476,-77.8932185,37.64772,8.841873496046901,29.008772240770515,2.64772,8.686745684799998,9.229796753910492,30.281486382099697
597446766,Talon 7-1,597222713.0,40.8013114,-77.8939623,35.0,27.0,2.0,13.77372,1.960254745994546,40.8014235,-77.8940255,35.14764,13.556470426172812,44.47661043300481,0.1476400000000026,0.4843832176000087,13.557274356790826,44.47924800073361
603702745,Talon 7-1,601522144.0,40.8008525,-77.8945255,35.0,27.0,2.0,14.82511,1.8212343786993823,40.8008505,-77.894524,31.4304,0.2558039106903161,0.8392517023492166,-3.569600000000001,-11.711286464000004,3.57875394526146,11.741319093771608
611702620,Talon 7-1,610322143.0,40.8005723,-77.8936458,35.0,27.0,2.0,12.93829,2.08682909410749,40.8005544,-77.8936481,34.96701,2.000347367924803,6.562819658582411,-0.032989999999998,-0.1082349115999936,2.000619387205794,6.563712110320258
618247618,Talon 7-1,616022434.0,40.800816,-77.892884,35.0,27.0,2.0,14.08052,1.9175428180209253,40.8008263,-77.892908,35.50988,2.322883665606996,7.621009645470058,0.5098800000000026,1.6728346992000085,2.378185471813289,7.802446023343913
623247289,Talon 7-1,622122387.0,40.8013906,-77.8932917,35.0,27.0,2.0,14.85504,1.817564947654129,40.8014528,-77.8932063,36.3642,9.97815258806012,32.73672213701117,1.3641999999999967,4.475721927999989,10.070976651279205,33.04126303658287
628002494,Talon 7-1,627822469.0,40.8013114,-77.8939623,35.0,27.0,2.0,12.69048,2.1275790986629346,40.801443,-77.8940366,36.8243,15.918156250006945,52.22492375127278,1.824300000000001,5.985236412000003,16.022352164699015,52.56677387603112
